[
  {
    "code": "KGXA",
    "name": "Gray Butte Field",
    "lat": "34.566631",
    "lon": "-117.670666"
  },
  {
    "code": "07FA",
    "name": "Ocean Reef Club Airport",
    "lat": "25.325399",
    "lon": "-80.274803"
  },
  {
    "code": "K0O4",
    "name": "Corning Municipal Airport",
    "lat": "39.944555",
    "lon": "-122.170851"
  },
  {
    "code": "K1O6",
    "name": "Dunsmuir Muni-Mott Airport",
    "lat": "41.263199",
    "lon": "-122.272003"
  },
  {
    "code": "K1Z1",
    "name": "Grand Canyon Bar Ten Airstrip",
    "lat": "36.257984",
    "lon": "-113.231063"
  },
  {
    "code": "K26N",
    "name": "Ocean City Municipal Airport",
    "lat": "39.2635",
    "lon": "-74.607498"
  },
  {
    "code": "62CA",
    "name": "Bank of America Data Center Heliport",
    "lat": "34.053668",
    "lon": "-118.253183"
  },
  {
    "code": "KNGT",
    "name": "Naval Outlying Landing Field Goliad",
    "lat": "28.615516",
    "lon": "-97.616302"
  },
  {
    "code": "KA28",
    "name": "Fort Bidwell Airport",
    "lat": "41.876301",
    "lon": "-120.147003"
  },
  {
    "code": "OEBT",
    "name": "Batha Airport",
    "lat": "24.214693",
    "lon": "51.44989"
  },
  {
    "code": "OMDU",
    "name": "Skydive Dubai Airport",
    "lat": "25.090037",
    "lon": "55.132345"
  },
  {
    "code": "AGGH",
    "name": "Honiara International Airport",
    "lat": "-9.428",
    "lon": "160.054993"
  },
  {
    "code": "AGGM",
    "name": "Munda Airport",
    "lat": "-8.32797",
    "lon": "157.263"
  },
  {
    "code": "AGGO",
    "name": "Mono Airport",
    "lat": "-7.41694",
    "lon": "155.565002"
  },
  {
    "code": "PAKX",
    "name": "Wilder/Natwick LLC Airport",
    "lat": "60.198567",
    "lon": "-154.322789"
  },
  {
    "code": "ANYN",
    "name": "Nauru International Airport",
    "lat": "-0.547893",
    "lon": "166.919525"
  },
  {
    "code": "SAHI",
    "name": "Cipoletti Aeroclub Airport",
    "lat": "-38.8931007385",
    "lon": "-67.9886016846"
  },
  {
    "code": "SABP",
    "name": "Coronel Pringles Airport",
    "lat": "-38.0066680908",
    "lon": "-61.331943512"
  },
  {
    "code": "SAWO",
    "name": "Ushuaia Aeroclub Airport",
    "lat": "-54.8227",
    "lon": "-68.3043"
  },
  {
    "code": "YCRN",
    "name": "Cranbourn Airfield",
    "lat": "-41.161173",
    "lon": "147.015096"
  },
  {
    "code": "AYAO",
    "name": "Aiome Airport",
    "lat": "-5.145699978",
    "lon": "144.7307003"
  },
  {
    "code": "AYAY",
    "name": "Aiyura Airport",
    "lat": "-6.33805555556",
    "lon": "145.904166667"
  },
  {
    "code": "AYBK",
    "name": "Buka Airport",
    "lat": "-5.422299",
    "lon": "154.672698"
  },
  {
    "code": "AYBU",
    "name": "Bulolo Airport",
    "lat": "-7.216286671410001",
    "lon": "146.649541855"
  },
  {
    "code": "AYCG",
    "name": "Cape Gloucester Airport",
    "lat": "-5.455231",
    "lon": "148.422289"
  },
  {
    "code": "AYCH",
    "name": "Chimbu Airport",
    "lat": "-6.024290084838867",
    "lon": "144.9709930419922"
  },
  {
    "code": "AYDU",
    "name": "Daru Airport",
    "lat": "-9.08676",
    "lon": "143.207993"
  },
  {
    "code": "AYEE",
    "name": "Emirau Airport",
    "lat": "-1.653949991",
    "lon": "149.9757667"
  },
  {
    "code": "AYEH",
    "name": "Morehead Airport",
    "lat": "-8.71411111111",
    "lon": "141.644444444"
  },
  {
    "code": "AYGA",
    "name": "Goroka Airport",
    "lat": "-6.081689834590001",
    "lon": "145.391998291"
  },
  {
    "code": "AYGJ",
    "name": "Guasopa Airport",
    "lat": "-9.225918",
    "lon": "152.944352"
  },
  {
    "code": "AYGN",
    "name": "Gurney Airport",
    "lat": "-10.3114995956",
    "lon": "150.333999634"
  },
  {
    "code": "AYGR",
    "name": "Girua Airport",
    "lat": "-8.80453968048",
    "lon": "148.309005737"
  },
  {
    "code": "AYHK",
    "name": "Hoskins Airport",
    "lat": "-5.463846",
    "lon": "150.407327"
  },
  {
    "code": "AYIQ",
    "name": "Aropa Airport",
    "lat": "-6.305727",
    "lon": "155.728249"
  },
  {
    "code": "AYIU",
    "name": "Ialibu Airport",
    "lat": "-6.2782",
    "lon": "143.9944"
  },
  {
    "code": "AYKA",
    "name": "Losuia Airport",
    "lat": "-8.505820274353027",
    "lon": "151.08099365234375"
  },
  {
    "code": "AYKI",
    "name": "Kiunga Airport",
    "lat": "-6.1257100105285645",
    "lon": "141.28199768066406"
  },
  {
    "code": "AYKV",
    "name": "Kavieng Airport",
    "lat": "-2.57940006256",
    "lon": "150.807998657"
  },
  {
    "code": "AYKY",
    "name": "Londolovit Airport",
    "lat": "-3.04361009598",
    "lon": "152.628997803"
  },
  {
    "code": "AYMD",
    "name": "Madang Airport",
    "lat": "-5.20707988739",
    "lon": "145.789001465"
  },
  {
    "code": "AYMH",
    "name": "Mount Hagen Kagamuga Airport",
    "lat": "-5.828212",
    "lon": "144.299412"
  },
  {
    "code": "AYMO",
    "name": "Momote Airport",
    "lat": "-2.06189",
    "lon": "147.423996"
  },
  {
    "code": "AYMP",
    "name": "Malalaua Airport",
    "lat": "-8.07138888889",
    "lon": "146.155472222"
  },
  {
    "code": "AYMR",
    "name": "Moro Airport",
    "lat": "-6.36332988739",
    "lon": "143.238006592"
  },
  {
    "code": "AYMS",
    "name": "Misima Island Airport",
    "lat": "-10.689200401299999",
    "lon": "152.837997437"
  },
  {
    "code": "AYNX",
    "name": "Namatanai Airport",
    "lat": "-3.6695",
    "lon": "152.438"
  },
  {
    "code": "AYNZ",
    "name": "Nadzab Tomodachi International Airport",
    "lat": "-6.567995",
    "lon": "146.726544"
  },
  {
    "code": "AYOY",
    "name": "Open Bay Airport",
    "lat": "-4.794727",
    "lon": "151.696195"
  },
  {
    "code": "AYPY",
    "name": "Port Moresby Jacksons International Airport",
    "lat": "-9.443380355834961",
    "lon": "147.22000122070312"
  },
  {
    "code": "AYSD",
    "name": "Saidor Airport",
    "lat": "-5.62713888889",
    "lon": "146.462777778"
  },
  {
    "code": "AYSF",
    "name": "Safia Airport",
    "lat": "-9.59305555556",
    "lon": "148.636111111"
  },
  {
    "code": "AYTA",
    "name": "Tari Airport",
    "lat": "-5.845",
    "lon": "142.947998"
  },
  {
    "code": "AYTB",
    "name": "Tabubil Airport",
    "lat": "-5.280471",
    "lon": "141.227576"
  },
  {
    "code": "AYTK",
    "name": "Tokua Airport",
    "lat": "-4.34046",
    "lon": "152.380005"
  },
  {
    "code": "AYVL",
    "name": "Talasea Airport",
    "lat": "-5.2726",
    "lon": "150.0089"
  },
  {
    "code": "AYWD",
    "name": "Wapenamanda Airport",
    "lat": "-5.635293",
    "lon": "143.892231"
  },
  {
    "code": "AYWK",
    "name": "Wewak International Airport",
    "lat": "-3.58383011818",
    "lon": "143.669006348"
  },
  {
    "code": "LBTG",
    "name": "Targovishte Airport / Buhovtsi Airfield",
    "lat": "43.306599",
    "lon": "26.700899"
  },
  {
    "code": "LBIA",
    "name": "Bezmer Air Base",
    "lat": "42.454899",
    "lon": "26.3522"
  },
  {
    "code": "BGBW",
    "name": "Narsarsuaq Airport",
    "lat": "61.1605",
    "lon": "-45.425999"
  },
  {
    "code": "BGCO",
    "name": "Neerlerit Inaat Airport",
    "lat": "70.743103",
    "lon": "-22.650499"
  },
  {
    "code": "BGKK",
    "name": "Kulusuk Airport",
    "lat": "65.573601",
    "lon": "-37.1236"
  },
  {
    "code": "BGSF",
    "name": "Kangerlussuaq International Airport",
    "lat": "67.010446",
    "lon": "-50.715294"
  },
  {
    "code": "BGTL",
    "name": "Pituffik Space Base",
    "lat": "76.53063",
    "lon": "-68.700541"
  },
  {
    "code": "BIAR",
    "name": "Akureyri International Airport",
    "lat": "65.656573",
    "lon": "-18.072018"
  },
  {
    "code": "BIBD",
    "name": "Bildudalur Airport",
    "lat": "65.641296",
    "lon": "-23.5462"
  },
  {
    "code": "BIBL",
    "name": "Blönduós Airport",
    "lat": "65.644997",
    "lon": "-20.2875"
  },
  {
    "code": "BIEG",
    "name": "Egilsstaðir Airport",
    "lat": "65.2833023071289",
    "lon": "-14.401399612426758"
  },
  {
    "code": "BIGJ",
    "name": "Gjögur Airport",
    "lat": "65.9953",
    "lon": "-21.3269"
  },
  {
    "code": "BIGR",
    "name": "Grímsey Airport",
    "lat": "66.5458",
    "lon": "-18.0173"
  },
  {
    "code": "BIHK",
    "name": "Hólmavík Airport",
    "lat": "65.704697",
    "lon": "-21.6964"
  },
  {
    "code": "BIHN",
    "name": "Hornafjörður Airport",
    "lat": "64.295601",
    "lon": "-15.2272"
  },
  {
    "code": "BIHU",
    "name": "Húsavík Airport",
    "lat": "65.952301",
    "lon": "-17.426001"
  },
  {
    "code": "BIIS",
    "name": "Ísafjörður Airport",
    "lat": "66.058098",
    "lon": "-23.1353"
  },
  {
    "code": "BIKF",
    "name": "Keflavik International Airport",
    "lat": "63.985001",
    "lon": "-22.6056"
  },
  {
    "code": "BIKR",
    "name": "Sauðárkrókur Airport",
    "lat": "65.73169708249999",
    "lon": "-19.572799682599996"
  },
  {
    "code": "BINF",
    "name": "Norðfjörður Airport",
    "lat": "65.131897",
    "lon": "-13.7464"
  },
  {
    "code": "BIRF",
    "name": "Rif Airport",
    "lat": "64.911377",
    "lon": "-23.818205"
  },
  {
    "code": "BIRG",
    "name": "Raufarhöfn Airport",
    "lat": "66.406403",
    "lon": "-15.9183"
  },
  {
    "code": "BIRK",
    "name": "Reykjavík Domestic Airport",
    "lat": "64.128732",
    "lon": "-21.93759"
  },
  {
    "code": "BIRL",
    "name": "Mývatn Airport",
    "lat": "65.6558",
    "lon": "-16.9181"
  },
  {
    "code": "BISF",
    "name": "Selfoss Airport",
    "lat": "63.929199",
    "lon": "-21.0378"
  },
  {
    "code": "BISI",
    "name": "Siglufjörður Airport",
    "lat": "66.137847",
    "lon": "-18.908157"
  },
  {
    "code": "BIST",
    "name": "Stykkishólmur Airport",
    "lat": "65.058851",
    "lon": "-22.764616"
  },
  {
    "code": "BITE",
    "name": "Þingeyri Airport",
    "lat": "65.8703",
    "lon": "-23.559999"
  },
  {
    "code": "BITN",
    "name": "Þórshöfn Airport",
    "lat": "66.218459",
    "lon": "-15.334739"
  },
  {
    "code": "BIVM",
    "name": "Vestmannaeyjar Airport",
    "lat": "63.42430114746094",
    "lon": "-20.278900146484375"
  },
  {
    "code": "BIVO",
    "name": "Vopnafjörður Airport",
    "lat": "65.720596",
    "lon": "-14.8506"
  },
  {
    "code": "BKPR",
    "name": "Priština Adem Jashari International Airport",
    "lat": "42.5728",
    "lon": "21.035801"
  },
  {
    "code": "SBIL",
    "name": "Ilha Solteira",
    "lat": "-20.4217",
    "lon": "-51.331402"
  },
  {
    "code": "SDLR",
    "name": "Luiz Ribeiro Maia Airport",
    "lat": "-5.636109",
    "lon": "-63.185731"
  },
  {
    "code": "SSKJ",
    "name": "Pau dos Ferros Airport",
    "lat": "-6.154339",
    "lon": "-38.196588"
  },
  {
    "code": "SSKE",
    "name": "Luís Antônio Fontenele - Cocal da Estação Airport",
    "lat": "-3.455071",
    "lon": "-41.604942"
  },
  {
    "code": "SWYC",
    "name": "Fazenda Rancho Alegre I Airport",
    "lat": "-16.255972",
    "lon": "-59.716035"
  },
  {
    "code": "SSAC",
    "name": "Condomínio Aeronáutico Aeroagro Airport",
    "lat": "-12.594051",
    "lon": "-55.697996"
  },
  {
    "code": "SWSY",
    "name": "Fazenda Santa Inês Heliport",
    "lat": "-22.176727",
    "lon": "-46.715287"
  },
  {
    "code": "SDPE",
    "name": "Pampas Heliport",
    "lat": "-29.361342",
    "lon": "-50.839693"
  },
  {
    "code": "SCCC",
    "name": "Kuehlmeyer Heliport",
    "lat": "-3.510072",
    "lon": "-38.889581"
  },
  {
    "code": "SSBZ",
    "name": "Ernesto Heliport",
    "lat": "-15.334498",
    "lon": "-59.256475"
  },
  {
    "code": "SBVC",
    "name": "Glauber de Andrade Rocha Airport",
    "lat": "-14.907885",
    "lon": "-40.914804"
  },
  {
    "code": "SSWL",
    "name": "Luiz Aragão Airport",
    "lat": "-3.74",
    "lon": "-41.023333"
  },
  {
    "code": "SSLJ",
    "name": "Fazenda São Luís",
    "lat": "-13.452496",
    "lon": "-60.82866"
  },
  {
    "code": "SNUJ",
    "name": "Fazenda São Francisco Airport",
    "lat": "-15.347004",
    "lon": "-58.572064"
  },
  {
    "code": "SWXR",
    "name": "Flights Ranch Airstrip",
    "lat": "-13.006439",
    "lon": "-44.060617"
  },
  {
    "code": "SJCM",
    "name": "Catuleve Airport",
    "lat": "-3.939457",
    "lon": "-38.378971"
  },
  {
    "code": "SSMF",
    "name": "Fazenda Santri Airport",
    "lat": "-17.158056",
    "lon": "-56.614722"
  },
  {
    "code": "SWBI",
    "name": "Santa Colomba Cafés Airport",
    "lat": "-14.623452",
    "lon": "-45.251461"
  },
  {
    "code": "SNXI",
    "name": "Alberto Ramos Airport",
    "lat": "-19.087031",
    "lon": "-44.328377"
  },
  {
    "code": "SSJR",
    "name": "Fazenda São Roque Airport",
    "lat": "-13.389444",
    "lon": "-55.2475"
  },
  {
    "code": "SSBJ",
    "name": "Fazenda Savana Airport",
    "lat": "-11.557693",
    "lon": "-45.544081"
  },
  {
    "code": "SDXB",
    "name": "Piracuruca Airport",
    "lat": "-3.891421",
    "lon": "-41.710772"
  },
  {
    "code": "SDYW",
    "name": "Luzilandia Airport",
    "lat": "-3.537236",
    "lon": "-42.372869"
  },
  {
    "code": "SSSQ",
    "name": "Fazenda Mata Roxa Airport",
    "lat": "-18.20525",
    "lon": "-48.2806"
  },
  {
    "code": "SSLS",
    "name": "Ruy Barbosa Airport",
    "lat": "-12.271628",
    "lon": "-40.530149"
  },
  {
    "code": "SSID",
    "name": "Apodi Heliport",
    "lat": "-3.668337",
    "lon": "-38.850298"
  },
  {
    "code": "SSLA",
    "name": "Fazenda Alves  Airport",
    "lat": "-12.616659",
    "lon": "-55.610976"
  },
  {
    "code": "SSPK",
    "name": "Panco 8 Helipad",
    "lat": "-23.43095",
    "lon": "-46.585363"
  },
  {
    "code": "SSYA",
    "name": "Avelino Vieira Airport",
    "lat": "-24.103901",
    "lon": "-49.789101"
  },
  {
    "code": "SDSB",
    "name": "Fazenda São Sebastião Airport",
    "lat": "-19.99644",
    "lon": "-47.515923"
  },
  {
    "code": "SWRA",
    "name": "Arraias Airport",
    "lat": "-13.025154",
    "lon": "-46.884107"
  },
  {
    "code": "SWKG",
    "name": "Ilha da Gipóia Heliport",
    "lat": "-23.050079",
    "lon": "-44.347796"
  },
  {
    "code": "SSIM",
    "name": "Boqueirão Alegre Airport",
    "lat": "-30.254004",
    "lon": "-55.846174"
  },
  {
    "code": "SWJU",
    "name": "Juruena Airport",
    "lat": "-10.314114",
    "lon": "-58.494877"
  },
  {
    "code": "UMIO",
    "name": "Orsha Airport - Balbasovo Air Base",
    "lat": "54.439999",
    "lon": "30.2967"
  },
  {
    "code": "CA26",
    "name": "Hall of Justice Heliport",
    "lat": "37.774898529052734",
    "lon": "-122.40499877929688"
  },
  {
    "code": "CA27",
    "name": "Alcatraz Heliport",
    "lat": "37.825912",
    "lon": "-122.421448"
  },
  {
    "code": "CA51",
    "name": "The Sea Ranch Airport",
    "lat": "38.7046012878418",
    "lon": "-123.43299865722656"
  },
  {
    "code": "CAH3",
    "name": "Courtenay Airpark",
    "lat": "49.679237",
    "lon": "-124.98064"
  },
  {
    "code": "CAM3",
    "name": "Duncan Airport",
    "lat": "48.754534",
    "lon": "-123.709702"
  },
  {
    "code": "CAT4",
    "name": "Qualicum Beach Airport",
    "lat": "49.337456",
    "lon": "-124.393086"
  },
  {
    "code": "CAT5",
    "name": "Port McNeill Airport",
    "lat": "50.57348",
    "lon": "-127.027702"
  },
  {
    "code": "CBBC",
    "name": "Bella Bella (Campbell Island) Airport",
    "lat": "52.185001",
    "lon": "-128.156994"
  },
  {
    "code": "CBS8",
    "name": "Alberni Valley Regional Airport",
    "lat": "49.321899",
    "lon": "-124.931"
  },
  {
    "code": "CCS6",
    "name": "Smit Field",
    "lat": "49.666938",
    "lon": "-125.097654"
  },
  {
    "code": "FZNS",
    "name": "Wageni Airport",
    "lat": "0.510171",
    "lon": "29.475803"
  },
  {
    "code": "CYFI",
    "name": "Fort Mackay / Firebag",
    "lat": "57.275833",
    "lon": "-110.976666"
  },
  {
    "code": "CML2",
    "name": "Quamichan Lake (Raven Field) Airport",
    "lat": "48.8119010925293",
    "lon": "-123.6510009765625"
  },
  {
    "code": "ZSNJ",
    "name": "Nanjing Dajiaochang Airport",
    "lat": "31.996394",
    "lon": "118.81279"
  },
  {
    "code": "ZULZ",
    "name": "Luzhou Lantian Airport",
    "lat": "28.852577",
    "lon": "105.392579"
  },
  {
    "code": "ZPPP",
    "name": "Kunming Wujiaba International Airport",
    "lat": "24.9924",
    "lon": "102.7435"
  },
  {
    "code": "ZUBZ",
    "name": "Bazhong Enyang Airport",
    "lat": "31.73842",
    "lon": "106.644872"
  },
  {
    "code": "ZLHZ",
    "name": "Hanzhong Xiguan Airport",
    "lat": "33.063599",
    "lon": "107.008003"
  },
  {
    "code": "ZLAK",
    "name": "Ankang Wulipu Airport",
    "lat": "32.708056",
    "lon": "108.931111"
  },
  {
    "code": "ZSGZ",
    "name": "Former Ganzhou Huangjin Airport",
    "lat": "25.82666",
    "lon": "114.91277"
  },
  {
    "code": "ZWCM",
    "name": "Former Qiemo Airport",
    "lat": "38.14886",
    "lon": "85.5325"
  },
  {
    "code": "ZSAM",
    "name": "Xiamen Xiang'an International Airport (Under Construction)",
    "lat": "24.544094",
    "lon": "118.358522"
  },
  {
    "code": "ZPZT",
    "name": "Zhaotong Zhaoyang Airport （Not fully opened)",
    "lat": "27.205843",
    "lon": "103.691511"
  },
  {
    "code": "ZLYA",
    "name": "Yan'an Ershilipu Airport",
    "lat": "36.636902",
    "lon": "109.554001"
  },
  {
    "code": "ZGWZ",
    "name": "Wuzhou Changzhoudao Airport",
    "lat": "23.456699",
    "lon": "111.248001"
  },
  {
    "code": "ZUYB",
    "name": "Yibin Caiba Airport",
    "lat": "28.800556",
    "lon": "104.545"
  },
  {
    "code": "ZSYT",
    "name": "Yantai Laishan Airport",
    "lat": "37.396825",
    "lon": "121.369571"
  },
  {
    "code": "ZBNY",
    "name": "Beijing Nanyuan Airport",
    "lat": "39.782158",
    "lon": "116.386299"
  },
  {
    "code": "ZSJG",
    "name": "Jining Qufu Airport",
    "lat": "35.292778",
    "lon": "116.346667"
  },
  {
    "code": "CN02",
    "name": "San Francisco VA Medical Center Heliport",
    "lat": "37.783331",
    "lon": "-122.506389"
  },
  {
    "code": "CYTB",
    "name": "Tillsonburg Airport",
    "lat": "42.9275",
    "lon": "-80.746944"
  },
  {
    "code": "SKBO",
    "name": "Techo International Airport",
    "lat": "4.62674",
    "lon": "-74.1474"
  },
  {
    "code": "MUNC",
    "name": "Nicaro Airport",
    "lat": "20.688601",
    "lon": "-75.531502"
  },
  {
    "code": "CYAC",
    "name": "Cat Lake Airport",
    "lat": "51.7272",
    "lon": "-91.824402"
  },
  {
    "code": "CYAD",
    "name": "La Grande-3 Airport",
    "lat": "53.5717010498",
    "lon": "-76.19640350339999"
  },
  {
    "code": "CYAG",
    "name": "Fort Frances Municipal Airport",
    "lat": "48.655749",
    "lon": "-93.44349"
  },
  {
    "code": "CYAH",
    "name": "La Grande-4 Airport",
    "lat": "53.754699707",
    "lon": "-73.6753005981"
  },
  {
    "code": "CYAM",
    "name": "Sault Ste Marie Airport",
    "lat": "46.483216",
    "lon": "-84.508467"
  },
  {
    "code": "CYAQ",
    "name": "Kasabonika Airport",
    "lat": "53.52470016479492",
    "lon": "-88.6427993774414"
  },
  {
    "code": "CYAS",
    "name": "Kangirsuk Airport",
    "lat": "60.027199",
    "lon": "-69.999199"
  },
  {
    "code": "CYAT",
    "name": "Attawapiskat Airport",
    "lat": "52.927502",
    "lon": "-82.4319"
  },
  {
    "code": "CYAX",
    "name": "Lac du Bonnet Airport",
    "lat": "50.294399",
    "lon": "-96.010002"
  },
  {
    "code": "CYAY",
    "name": "St. Anthony Airport",
    "lat": "51.391909",
    "lon": "-56.08321"
  },
  {
    "code": "CYAZ",
    "name": "Tofino / Long Beach Airport",
    "lat": "49.079833",
    "lon": "-125.775583"
  },
  {
    "code": "CYBB",
    "name": "Kugaaruk Airport",
    "lat": "68.535711",
    "lon": "-89.805508"
  },
  {
    "code": "CYBC",
    "name": "Baie-Comeau Airport",
    "lat": "49.1325",
    "lon": "-68.204399"
  },
  {
    "code": "CYBD",
    "name": "Bella Coola Airport",
    "lat": "52.387501",
    "lon": "-126.596001"
  },
  {
    "code": "CYBE",
    "name": "Uranium City Airport",
    "lat": "59.561401",
    "lon": "-108.481003"
  },
  {
    "code": "CYBF",
    "name": "Bonnyville Airport",
    "lat": "54.304199",
    "lon": "-110.744003"
  },
  {
    "code": "CYBG",
    "name": "Saguenay-Bagotville Airport",
    "lat": "48.330123",
    "lon": "-70.992012"
  },
  {
    "code": "CYBK",
    "name": "Baker Lake Airport",
    "lat": "64.29889678960001",
    "lon": "-96.077796936"
  },
  {
    "code": "CYBL",
    "name": "Campbell River Airport",
    "lat": "49.950802",
    "lon": "-125.271004"
  },
  {
    "code": "CYBR",
    "name": "Brandon Municipal Airport",
    "lat": "49.91",
    "lon": "-99.951897"
  },
  {
    "code": "CYBT",
    "name": "Brochet Airport",
    "lat": "57.8894",
    "lon": "-101.679001"
  },
  {
    "code": "CYBW",
    "name": "Calgary / Springbank Airport",
    "lat": "51.103982",
    "lon": "-114.369378"
  },
  {
    "code": "CYBX",
    "name": "Lourdes-de-Blanc-Sablon Airport",
    "lat": "51.4436",
    "lon": "-57.185299"
  },
  {
    "code": "CYCA",
    "name": "Cartwright Airport",
    "lat": "53.682501",
    "lon": "-57.042303"
  },
  {
    "code": "CYCB",
    "name": "Cambridge Bay Airport",
    "lat": "69.1081008911",
    "lon": "-105.138000488"
  },
  {
    "code": "CYCC",
    "name": "Cornwall Regional Airport",
    "lat": "45.092637",
    "lon": "-74.567724"
  },
  {
    "code": "CYCD",
    "name": "Nanaimo Airport",
    "lat": "49.05497",
    "lon": "-123.869863"
  },
  {
    "code": "CYCE",
    "name": "Centralia / James T. Field Memorial Aerodrome",
    "lat": "43.285599",
    "lon": "-81.508301"
  },
  {
    "code": "CYCG",
    "name": "Castlegar/West Kootenay Regional Airport",
    "lat": "49.296398",
    "lon": "-117.632004"
  },
  {
    "code": "CYCN",
    "name": "Cochrane Airport",
    "lat": "49.10559844970703",
    "lon": "-81.01360321044922"
  },
  {
    "code": "CYCO",
    "name": "Kugluktuk Airport",
    "lat": "67.816408",
    "lon": "-115.14307"
  },
  {
    "code": "CYCP",
    "name": "Blue River Airport",
    "lat": "52.11669921875",
    "lon": "-119.28299713134766"
  },
  {
    "code": "CYCR",
    "name": "Cross Lake (Charlie Sinclair Memorial) Airport",
    "lat": "54.609758",
    "lon": "-97.762442"
  },
  {
    "code": "CYCS",
    "name": "Chesterfield Inlet Airport",
    "lat": "63.346901",
    "lon": "-90.731102"
  },
  {
    "code": "CYCY",
    "name": "Clyde River Airport",
    "lat": "70.486099",
    "lon": "-68.516701"
  },
  {
    "code": "CYCZ",
    "name": "Fairmont Hot Springs Airport",
    "lat": "50.331052",
    "lon": "-115.873739"
  },
  {
    "code": "CYDA",
    "name": "Dawson City Airport",
    "lat": "64.04309844970703",
    "lon": "-139.1280059814453"
  },
  {
    "code": "CYDB",
    "name": "Burwash Airport",
    "lat": "61.371101",
    "lon": "-139.041"
  },
  {
    "code": "CYDC",
    "name": "Princeton Airport",
    "lat": "49.468102",
    "lon": "-120.511002"
  },
  {
    "code": "CYDF",
    "name": "Deer Lake Airport",
    "lat": "49.208159",
    "lon": "-57.396147"
  },
  {
    "code": "CYDL",
    "name": "Dease Lake Airport",
    "lat": "58.422199",
    "lon": "-130.031998"
  },
  {
    "code": "CYDM",
    "name": "Ross River Airport",
    "lat": "61.9706001282",
    "lon": "-132.42300415"
  },
  {
    "code": "CYDQ",
    "name": "Dawson Creek Airport",
    "lat": "55.741245",
    "lon": "-120.183263"
  },
  {
    "code": "CYEE",
    "name": "Huronia Airport",
    "lat": "44.6833000183",
    "lon": "-79.9282989502"
  },
  {
    "code": "CYEG",
    "name": "Edmonton International Airport",
    "lat": "53.3097",
    "lon": "-113.580002"
  },
  {
    "code": "CYEK",
    "name": "Arviat Airport",
    "lat": "61.0942",
    "lon": "-94.070801"
  },
  {
    "code": "CYEL",
    "name": "Elliot Lake Municipal Airport",
    "lat": "46.351398468",
    "lon": "-82.5614013672"
  },
  {
    "code": "CYEN",
    "name": "Estevan Airport",
    "lat": "49.2103004456",
    "lon": "-102.966003418"
  },
  {
    "code": "CYER",
    "name": "Fort Severn Airport",
    "lat": "56.018902",
    "lon": "-87.676102"
  },
  {
    "code": "CYET",
    "name": "Edson Airport",
    "lat": "53.578899383499994",
    "lon": "-116.464996338"
  },
  {
    "code": "CYEU",
    "name": "Eureka Airport",
    "lat": "79.9946975708",
    "lon": "-85.814201355"
  },
  {
    "code": "CYEV",
    "name": "Inuvik Mike Zubko Airport",
    "lat": "68.30419921880001",
    "lon": "-133.483001709"
  },
  {
    "code": "CYFB",
    "name": "Iqaluit Airport",
    "lat": "63.756402",
    "lon": "-68.555801"
  },
  {
    "code": "CYFC",
    "name": "Fredericton International Airport",
    "lat": "45.868697",
    "lon": "-66.529891"
  },
  {
    "code": "CYFD",
    "name": "Brantford Municipal Airport",
    "lat": "43.131401",
    "lon": "-80.342499"
  },
  {
    "code": "CYFH",
    "name": "Fort Hope Airport",
    "lat": "51.561901",
    "lon": "-87.907799"
  },
  {
    "code": "CYFJ",
    "name": "Mont-Tremblant International Airport",
    "lat": "46.409401",
    "lon": "-74.779999"
  },
  {
    "code": "CYFS",
    "name": "Fort Simpson Airport",
    "lat": "61.76020050048828",
    "lon": "-121.23699951171875"
  },
  {
    "code": "CYGD",
    "name": "Goderich Airport",
    "lat": "43.7668991089",
    "lon": "-81.7106018066"
  },
  {
    "code": "CYGE",
    "name": "Golden Airport",
    "lat": "51.299196",
    "lon": "-116.982002"
  },
  {
    "code": "CYGH",
    "name": "Fort Good Hope Airport",
    "lat": "66.240658",
    "lon": "-128.647757"
  },
  {
    "code": "CYGK",
    "name": "Kingston Norman Rogers Airport",
    "lat": "44.2253",
    "lon": "-76.596901"
  },
  {
    "code": "CYGL",
    "name": "La Grande Rivière Airport",
    "lat": "53.625301361083984",
    "lon": "-77.7042007446289"
  },
  {
    "code": "CYGP",
    "name": "Michel-Pouliot Gaspé Airport",
    "lat": "48.774915",
    "lon": "-64.481893"
  },
  {
    "code": "CYGR",
    "name": "Îles-de-la-Madeleine Airport",
    "lat": "47.425242",
    "lon": "-61.778612"
  },
  {
    "code": "CYGT",
    "name": "Igloolik Airport",
    "lat": "69.3647",
    "lon": "-81.816101"
  },
  {
    "code": "CYGV",
    "name": "Havre-Saint-Pierre Airport",
    "lat": "50.281898",
    "lon": "-63.611401"
  },
  {
    "code": "CYGX",
    "name": "Gillam Airport",
    "lat": "56.35712",
    "lon": "-94.711504"
  },
  {
    "code": "CYHA",
    "name": "Quaqtaq Airport",
    "lat": "61.046398",
    "lon": "-69.617798"
  },
  {
    "code": "CYHF",
    "name": "Hearst René Fontaine Municipal Airport",
    "lat": "49.71419906616211",
    "lon": "-83.68609619140625"
  },
  {
    "code": "CYHH",
    "name": "Nemiscau Airport",
    "lat": "51.691101",
    "lon": "-76.135597"
  },
  {
    "code": "CYHI",
    "name": "Ulukhaktok Holman Airport",
    "lat": "70.762802",
    "lon": "-117.806"
  },
  {
    "code": "CYHK",
    "name": "Gjoa Haven Airport",
    "lat": "68.635597",
    "lon": "-95.849701"
  },
  {
    "code": "CYHM",
    "name": "John C. Munro Hamilton International Airport",
    "lat": "43.17348",
    "lon": "-79.931185"
  },
  {
    "code": "CYHN",
    "name": "Hornepayne Municipal Airport",
    "lat": "49.19309997558594",
    "lon": "-84.75890350341797"
  },
  {
    "code": "CYHP",
    "name": "Poplar Hill Airport",
    "lat": "52.1133",
    "lon": "-94.2556"
  },
  {
    "code": "CYHR",
    "name": "Chevery Airport",
    "lat": "50.468322",
    "lon": "-59.637823"
  },
  {
    "code": "CYHS",
    "name": "Hanover / Saugeen Municipal Airport",
    "lat": "44.158298",
    "lon": "-81.062798"
  },
  {
    "code": "CYHU",
    "name": "Montréal / Saint-Hubert Metropolitan Airport",
    "lat": "45.517502",
    "lon": "-73.416901"
  },
  {
    "code": "CYHY",
    "name": "Hay River / Merlyn Carter Airport",
    "lat": "60.8396987915",
    "lon": "-115.782997131"
  },
  {
    "code": "CYHZ",
    "name": "Halifax / Stanfield International Airport",
    "lat": "44.8807983398",
    "lon": "-63.5085983276"
  },
  {
    "code": "CYIB",
    "name": "Atikokan Municipal Airport",
    "lat": "48.773899",
    "lon": "-91.638603"
  },
  {
    "code": "CYID",
    "name": "Digby / Annapolis Regional Airport",
    "lat": "44.5458450365",
    "lon": "-65.7854247093"
  },
  {
    "code": "CYIF",
    "name": "St Augustin Airport",
    "lat": "51.2117",
    "lon": "-58.658298"
  },
  {
    "code": "CYIK",
    "name": "Ivujivik Airport",
    "lat": "62.417301",
    "lon": "-77.925301"
  },
  {
    "code": "CYIO",
    "name": "Pond Inlet Airport",
    "lat": "72.689494",
    "lon": "-77.968941"
  },
  {
    "code": "CYJA",
    "name": "Jasper Airport",
    "lat": "52.996418",
    "lon": "-118.060233"
  },
  {
    "code": "CYJN",
    "name": "St Jean Airport",
    "lat": "45.29439926147461",
    "lon": "-73.28109741210938"
  },
  {
    "code": "CYJT",
    "name": "Stephenville Dymond International Airport",
    "lat": "48.54339",
    "lon": "-58.552892"
  },
  {
    "code": "CYKA",
    "name": "Kamloops John Moose Fulton Field Regional Airport",
    "lat": "50.703038",
    "lon": "-120.448641"
  },
  {
    "code": "CYKC",
    "name": "Collins Bay Airport",
    "lat": "58.236099243199995",
    "lon": "-103.678001404"
  },
  {
    "code": "CYKF",
    "name": "Region of Waterloo International Airport",
    "lat": "43.4608",
    "lon": "-80.378601"
  },
  {
    "code": "CYKG",
    "name": "Kangiqsujuaq (Wakeham Bay) Airport",
    "lat": "61.5886",
    "lon": "-71.929398"
  },
  {
    "code": "CYKJ",
    "name": "Key Lake Airport",
    "lat": "57.256099700927734",
    "lon": "-105.61799621582031"
  },
  {
    "code": "CYKL",
    "name": "Schefferville Airport",
    "lat": "54.805301666259766",
    "lon": "-66.8052978515625"
  },
  {
    "code": "CYKM",
    "name": "Kincardine Municipal Airport",
    "lat": "44.201401",
    "lon": "-81.606697"
  },
  {
    "code": "CYKO",
    "name": "Akulivik Airport",
    "lat": "60.8186",
    "lon": "-78.148598"
  },
  {
    "code": "CYKP",
    "name": "Ogoki Post Airport",
    "lat": "51.6585998535",
    "lon": "-85.9017028809"
  },
  {
    "code": "CYKX",
    "name": "Kirkland Lake Airport",
    "lat": "48.21030044555664",
    "lon": "-79.98139953613281"
  },
  {
    "code": "CYKY",
    "name": "Kindersley Airport",
    "lat": "51.5175018311",
    "lon": "-109.180999756"
  },
  {
    "code": "CYLA",
    "name": "Aupaluk Airport",
    "lat": "59.2967",
    "lon": "-69.599701"
  },
  {
    "code": "CYLB",
    "name": "Lac La Biche Airport",
    "lat": "54.7703018188",
    "lon": "-112.031997681"
  },
  {
    "code": "CYLJ",
    "name": "Meadow Lake Airport",
    "lat": "54.125301361083984",
    "lon": "-108.52300262451172"
  },
  {
    "code": "CYLL",
    "name": "Lloydminster Airport",
    "lat": "53.3092",
    "lon": "-110.072998"
  },
  {
    "code": "CYLQ",
    "name": "La Tuque Airport",
    "lat": "47.4096984863",
    "lon": "-72.7889022827"
  },
  {
    "code": "CYLT",
    "name": "Alert Airport",
    "lat": "82.517263",
    "lon": "-62.283037"
  },
  {
    "code": "CYLU",
    "name": "Kangiqsualujjuaq (Georges River) Airport",
    "lat": "58.711399",
    "lon": "-65.992798"
  },
  {
    "code": "CYLW",
    "name": "Kelowna International Airport",
    "lat": "49.9561",
    "lon": "-119.377998"
  },
  {
    "code": "CYMA",
    "name": "Mayo Airport",
    "lat": "63.61640167236328",
    "lon": "-135.8679962158203"
  },
  {
    "code": "CYME",
    "name": "Matane Airport",
    "lat": "48.85689926147461",
    "lon": "-67.45330047607422"
  },
  {
    "code": "CYMG",
    "name": "Manitouwadge Airport",
    "lat": "49.083900451660156",
    "lon": "-85.86060333251953"
  },
  {
    "code": "CYMJ",
    "name": "Moose Jaw Air Vice Marshal C. M. McEwen Airport",
    "lat": "50.330299377441406",
    "lon": "-105.55899810791016"
  },
  {
    "code": "CYML",
    "name": "Charlevoix Airport",
    "lat": "47.59749984741211",
    "lon": "-70.2238998413086"
  },
  {
    "code": "CYMM",
    "name": "Fort McMurray International Airport",
    "lat": "56.653301",
    "lon": "-111.222"
  },
  {
    "code": "CYMO",
    "name": "Moosonee Airport",
    "lat": "51.291099548339844",
    "lon": "-80.60780334472656"
  },
  {
    "code": "CYMT",
    "name": "Chapais Airport",
    "lat": "49.77190017700195",
    "lon": "-74.5280990600586"
  },
  {
    "code": "CYMW",
    "name": "Maniwaki Airport",
    "lat": "46.2728",
    "lon": "-75.990601"
  },
  {
    "code": "CYMX",
    "name": "Montreal Mirabel International Airport",
    "lat": "45.679501",
    "lon": "-74.038696"
  },
  {
    "code": "CYNA",
    "name": "Natashquan Airport",
    "lat": "50.190114",
    "lon": "-61.78898"
  },
  {
    "code": "CYNC",
    "name": "Wemindji Airport",
    "lat": "53.010601",
    "lon": "-78.8311"
  },
  {
    "code": "CYND",
    "name": "Ottawa / Gatineau Airport",
    "lat": "45.521702",
    "lon": "-75.563599"
  },
  {
    "code": "CYNE",
    "name": "Norway House Airport",
    "lat": "53.958302",
    "lon": "-97.8442"
  },
  {
    "code": "CYNH",
    "name": "Hudson's Hope Airport",
    "lat": "56.035142",
    "lon": "-121.978326"
  },
  {
    "code": "CYNL",
    "name": "Points North Landing Airport",
    "lat": "58.27669906616211",
    "lon": "-104.08200073242188"
  },
  {
    "code": "CYNM",
    "name": "Matagami Airport",
    "lat": "49.76169967651367",
    "lon": "-77.80280303955078"
  },
  {
    "code": "CYNR",
    "name": "Fort Mackay / Horizon Airport",
    "lat": "57.381699",
    "lon": "-111.700996"
  },
  {
    "code": "CYOA",
    "name": "Ekati Airport",
    "lat": "64.6988983154",
    "lon": "-110.614997864"
  },
  {
    "code": "CYOC",
    "name": "Old Crow Airport",
    "lat": "67.570602",
    "lon": "-139.839005"
  },
  {
    "code": "CYOD",
    "name": "CFB Cold Lake",
    "lat": "54.404998779296875",
    "lon": "-110.27899932861328"
  },
  {
    "code": "CYOH",
    "name": "Oxford House Airport",
    "lat": "54.9333",
    "lon": "-95.2789"
  },
  {
    "code": "CYOO",
    "name": "Oshawa Executive Airport",
    "lat": "43.922798",
    "lon": "-78.894997"
  },
  {
    "code": "CYOP",
    "name": "Rainbow Lake Airport",
    "lat": "58.491402",
    "lon": "-119.407997"
  },
  {
    "code": "CYOS",
    "name": "Owen Sound / Billy Bishop Regional Airport",
    "lat": "44.5903015137",
    "lon": "-80.8375015259"
  },
  {
    "code": "CYOW",
    "name": "Ottawa Macdonald-Cartier International Airport",
    "lat": "45.322498",
    "lon": "-75.669197"
  },
  {
    "code": "CYPC",
    "name": "Paulatuk (Nora Aliqatchialuk Ruben) Airport",
    "lat": "69.360838",
    "lon": "-124.07547"
  },
  {
    "code": "CYPD",
    "name": "Port Hawkesbury Airport",
    "lat": "45.6567001343",
    "lon": "-61.3680992126"
  },
  {
    "code": "CYPE",
    "name": "Peace River Airport",
    "lat": "56.226898",
    "lon": "-117.446999"
  },
  {
    "code": "CYPG",
    "name": "Portage-la-Prairie / Southport Airport",
    "lat": "49.903099",
    "lon": "-98.273817"
  },
  {
    "code": "CYPK",
    "name": "Pitt Meadows Regional Airport",
    "lat": "49.21488",
    "lon": "-122.709294"
  },
  {
    "code": "CYPL",
    "name": "Pickle Lake Airport",
    "lat": "51.4463996887207",
    "lon": "-90.21420288085938"
  },
  {
    "code": "CYPN",
    "name": "Port-Menier Airport",
    "lat": "49.836399",
    "lon": "-64.288597"
  },
  {
    "code": "CYPO",
    "name": "Peawanuck Airport",
    "lat": "54.987932",
    "lon": "-85.442648"
  },
  {
    "code": "CYPR",
    "name": "Prince Rupert Airport",
    "lat": "54.286098480199996",
    "lon": "-130.445007324"
  },
  {
    "code": "CYPT",
    "name": "Pelee Island Airport",
    "lat": "41.778033",
    "lon": "-82.674222"
  },
  {
    "code": "CYPW",
    "name": "Powell River Airport",
    "lat": "49.83420181274414",
    "lon": "-124.5"
  },
  {
    "code": "CYPY",
    "name": "Fort Chipewyan Airport",
    "lat": "58.7672004699707",
    "lon": "-111.11699676513672"
  },
  {
    "code": "CYPZ",
    "name": "Burns Lake Airport",
    "lat": "54.3764",
    "lon": "-125.950996"
  },
  {
    "code": "CYQA",
    "name": "Muskoka Airport",
    "lat": "44.975376",
    "lon": "-79.306546"
  },
  {
    "code": "CYQB",
    "name": "Quebec Jean Lesage International Airport",
    "lat": "46.7911",
    "lon": "-71.393303"
  },
  {
    "code": "CYQD",
    "name": "The Pas Airport",
    "lat": "53.97140121459961",
    "lon": "-101.09100341796875"
  },
  {
    "code": "CYQF",
    "name": "Red Deer Regional Airport",
    "lat": "52.182201",
    "lon": "-113.893997"
  },
  {
    "code": "CYQG",
    "name": "Windsor International Airport",
    "lat": "42.2756",
    "lon": "-82.955597"
  },
  {
    "code": "CYQH",
    "name": "Watson Lake Airport",
    "lat": "60.116839",
    "lon": "-128.821993"
  },
  {
    "code": "CYQI",
    "name": "Yarmouth Airport",
    "lat": "43.826900482177734",
    "lon": "-66.08809661865234"
  },
  {
    "code": "CYQL",
    "name": "Lethbridge County Airport",
    "lat": "49.6302986145",
    "lon": "-112.800003052"
  },
  {
    "code": "CYQM",
    "name": "Greater Moncton Roméo LeBlanc International Airport",
    "lat": "46.113189",
    "lon": "-64.67719"
  },
  {
    "code": "CYQN",
    "name": "Nakina Airport",
    "lat": "50.18280029296875",
    "lon": "-86.69640350341797"
  },
  {
    "code": "CYQQ",
    "name": "Comox Valley International Airport / CFB Comox",
    "lat": "49.7108",
    "lon": "-124.887001"
  },
  {
    "code": "CYQR",
    "name": "Regina International Airport",
    "lat": "50.431938",
    "lon": "-104.660906"
  },
  {
    "code": "CYQS",
    "name": "St Thomas Municipal Airport",
    "lat": "42.77000045776367",
    "lon": "-81.11080169677734"
  },
  {
    "code": "CYQT",
    "name": "Thunder Bay International Airport",
    "lat": "48.371899",
    "lon": "-89.323898"
  },
  {
    "code": "CYQU",
    "name": "Grande Prairie Airport",
    "lat": "55.1796989441",
    "lon": "-118.885002136"
  },
  {
    "code": "CYQV",
    "name": "Yorkton Municipal Airport",
    "lat": "51.26470184326172",
    "lon": "-102.46199798583984"
  },
  {
    "code": "CYQW",
    "name": "North Battleford Airport",
    "lat": "52.769409",
    "lon": "-108.243742"
  },
  {
    "code": "CYQX",
    "name": "Gander International Airport",
    "lat": "48.936258",
    "lon": "-54.567719"
  },
  {
    "code": "CYQY",
    "name": "Sydney / J.A. Douglas McCurdy Airport",
    "lat": "46.161072",
    "lon": "-60.049759"
  },
  {
    "code": "CYQZ",
    "name": "Quesnel Airport",
    "lat": "53.026100158691406",
    "lon": "-122.51000213623047"
  },
  {
    "code": "CYRB",
    "name": "Resolute Bay Airport",
    "lat": "74.7169036865",
    "lon": "-94.9693984985"
  },
  {
    "code": "CYRC",
    "name": "Chicoutimi/Saint-Honoré Aerodrome",
    "lat": "48.520963",
    "lon": "-71.05256"
  },
  {
    "code": "CYRJ",
    "name": "Roberval Airport",
    "lat": "48.519665",
    "lon": "-72.265735"
  },
  {
    "code": "CYRL",
    "name": "Red Lake Airport",
    "lat": "51.066898345947266",
    "lon": "-93.79309844970703"
  },
  {
    "code": "CYRM",
    "name": "Rocky Mountain House Airport",
    "lat": "52.4296989441",
    "lon": "-114.903999329"
  },
  {
    "code": "CYRO",
    "name": "Ottawa / Rockcliffe Airport",
    "lat": "45.460496",
    "lon": "-75.644001"
  },
  {
    "code": "CYRQ",
    "name": "Trois-Rivières Airport",
    "lat": "46.35279846191406",
    "lon": "-72.67939758300781"
  },
  {
    "code": "CYRT",
    "name": "Rankin Inlet Airport",
    "lat": "62.8114013672",
    "lon": "-92.1157989502"
  },
  {
    "code": "CYRV",
    "name": "Revelstoke Airport",
    "lat": "50.962245",
    "lon": "-118.184258"
  },
  {
    "code": "CYSA",
    "name": "Stratford Municipal Airport",
    "lat": "43.415599823",
    "lon": "-80.93440246579999"
  },
  {
    "code": "CYSC",
    "name": "Sherbrooke Airport",
    "lat": "45.438599",
    "lon": "-71.691399"
  },
  {
    "code": "CYSF",
    "name": "Stony Rapids Airport",
    "lat": "59.250301361083984",
    "lon": "-105.84100341796875"
  },
  {
    "code": "CYSG",
    "name": "Saint-Georges Airport",
    "lat": "46.096401",
    "lon": "-70.714699"
  },
  {
    "code": "CYSH",
    "name": "Smiths Falls-Montague (Russ Beach) Airport",
    "lat": "44.945801",
    "lon": "-75.940598"
  },
  {
    "code": "CYSJ",
    "name": "Saint John Airport",
    "lat": "45.31610107421875",
    "lon": "-65.89029693603516"
  },
  {
    "code": "CYSK",
    "name": "Sanikiluaq Airport",
    "lat": "56.536891",
    "lon": "-79.250221"
  },
  {
    "code": "CYSL",
    "name": "Saint-Léonard Airport",
    "lat": "47.157097",
    "lon": "-67.836242"
  },
  {
    "code": "CYSM",
    "name": "Fort Smith Airport",
    "lat": "60.020302",
    "lon": "-111.961998"
  },
  {
    "code": "CYSN",
    "name": "Niagara District Airport",
    "lat": "43.191598",
    "lon": "-79.171686"
  },
  {
    "code": "CYSP",
    "name": "Marathon Airport",
    "lat": "48.75529861450195",
    "lon": "-86.34439849853516"
  },
  {
    "code": "CYSQ",
    "name": "Atlin Airport",
    "lat": "59.57833",
    "lon": "-133.668938"
  },
  {
    "code": "CYSY",
    "name": "Sachs Harbour (David Nasogaluak Jr. Saaryuaq) Airport",
    "lat": "71.993896",
    "lon": "-125.242996"
  },
  {
    "code": "CYTA",
    "name": "Pembroke Airport",
    "lat": "45.86439895629883",
    "lon": "-77.25170135498047"
  },
  {
    "code": "CYTE",
    "name": "Cape Dorset Airport",
    "lat": "64.230003",
    "lon": "-76.526703"
  },
  {
    "code": "CYTF",
    "name": "Alma Airport",
    "lat": "48.5089",
    "lon": "-71.641899"
  },
  {
    "code": "CYTH",
    "name": "Thompson Airport",
    "lat": "55.80110168457031",
    "lon": "-97.86419677734375"
  },
  {
    "code": "CYTL",
    "name": "Big Trout Lake Airport",
    "lat": "53.817799",
    "lon": "-89.896896"
  },
  {
    "code": "CYTN",
    "name": "Trenton Airport",
    "lat": "45.611904",
    "lon": "-62.621102"
  },
  {
    "code": "CYTQ",
    "name": "Tasiujaq Airport",
    "lat": "58.667801",
    "lon": "-69.955803"
  },
  {
    "code": "CYTR",
    "name": "CFB Trenton",
    "lat": "44.118900299072266",
    "lon": "-77.5280990600586"
  },
  {
    "code": "CYTS",
    "name": "Timmins/Victor M. Power",
    "lat": "48.569698333699996",
    "lon": "-81.376701355"
  },
  {
    "code": "CYTZ",
    "name": "Billy Bishop Toronto City Airport",
    "lat": "43.627852",
    "lon": "-79.39553"
  },
  {
    "code": "CYUB",
    "name": "Tuktoyaktuk / James Gruben Airport",
    "lat": "69.433296",
    "lon": "-133.026001"
  },
  {
    "code": "CYUL",
    "name": "Montreal / Pierre Elliott Trudeau International Airport",
    "lat": "45.467837",
    "lon": "-73.742294"
  },
  {
    "code": "CYUT",
    "name": "Naujaat Airport",
    "lat": "66.521024",
    "lon": "-86.225166"
  },
  {
    "code": "CYUY",
    "name": "Rouyn Noranda Airport",
    "lat": "48.20610046386719",
    "lon": "-78.83560180664062"
  },
  {
    "code": "CYVB",
    "name": "Bonaventure Airport",
    "lat": "48.071098",
    "lon": "-65.460297"
  },
  {
    "code": "CYVC",
    "name": "La Ronge Airport",
    "lat": "55.151401519800004",
    "lon": "-105.262001038"
  },
  {
    "code": "CYVK",
    "name": "Vernon Regional Airport",
    "lat": "50.246163",
    "lon": "-119.330963"
  },
  {
    "code": "CYVL",
    "name": "Tommy Kochon Airport",
    "lat": "67.02015",
    "lon": "-126.128364"
  },
  {
    "code": "CYVM",
    "name": "Qikiqtarjuaq Airport",
    "lat": "67.54656",
    "lon": "-64.03141"
  },
  {
    "code": "CYVO",
    "name": "Val-d'Or Airport",
    "lat": "48.0532989502",
    "lon": "-77.7827987671"
  },
  {
    "code": "CYVP",
    "name": "Kuujjuaq Airport",
    "lat": "58.096099853515625",
    "lon": "-68.4269027709961"
  },
  {
    "code": "CYVQ",
    "name": "Norman Wells Airport",
    "lat": "65.28160095214844",
    "lon": "-126.7979965209961"
  },
  {
    "code": "CYVR",
    "name": "Vancouver International Airport",
    "lat": "49.193901",
    "lon": "-123.183998"
  },
  {
    "code": "CYVT",
    "name": "Buffalo Narrows Airport",
    "lat": "55.8418998718",
    "lon": "-108.417999268"
  },
  {
    "code": "CYVV",
    "name": "Wiarton Airport",
    "lat": "44.7458",
    "lon": "-81.107201"
  },
  {
    "code": "CYVZ",
    "name": "Deer Lake Airport",
    "lat": "52.655613",
    "lon": "-94.061208"
  },
  {
    "code": "CYWG",
    "name": "Winnipeg / James Armstrong Richardson International Airport",
    "lat": "49.909999847399995",
    "lon": "-97.2398986816"
  },
  {
    "code": "CYWK",
    "name": "Wabush Airport",
    "lat": "52.92190170288086",
    "lon": "-66.8644027709961"
  },
  {
    "code": "CYWL",
    "name": "Williams Lake Airport",
    "lat": "52.1831016541",
    "lon": "-122.054000854"
  },
  {
    "code": "CYWM",
    "name": "Athabasca Airport",
    "lat": "54.743099212646484",
    "lon": "-113.20500183105469"
  },
  {
    "code": "CYWP",
    "name": "Webequie Airport",
    "lat": "52.959393",
    "lon": "-87.374868"
  },
  {
    "code": "CYXC",
    "name": "Cranbrook/Canadian Rockies International Airport",
    "lat": "49.610802",
    "lon": "-115.781998"
  },
  {
    "code": "CYXE",
    "name": "Saskatoon John G. Diefenbaker International Airport",
    "lat": "52.170723",
    "lon": "-106.700793"
  },
  {
    "code": "CYXH",
    "name": "Medicine Hat Regional Airport",
    "lat": "50.018902",
    "lon": "-110.721001"
  },
  {
    "code": "CYXJ",
    "name": "Fort St John / North Peace Regional Airport",
    "lat": "56.238098",
    "lon": "-120.739998"
  },
  {
    "code": "CYXK",
    "name": "Rimouski Airport",
    "lat": "48.477644",
    "lon": "-68.496323"
  },
  {
    "code": "CYXN",
    "name": "Whale Cove Airport",
    "lat": "62.240002",
    "lon": "-92.598099"
  },
  {
    "code": "CYXQ",
    "name": "Beaver Creek Airport",
    "lat": "62.410301208496094",
    "lon": "-140.86700439453125"
  },
  {
    "code": "CYXR",
    "name": "Earlton (Timiskaming Regional) Airport",
    "lat": "47.697400654599996",
    "lon": "-79.8473453522"
  },
  {
    "code": "CYXS",
    "name": "Prince George (International) Airport",
    "lat": "53.884311",
    "lon": "-122.666554"
  },
  {
    "code": "CYXT",
    "name": "Northwest Regional Airport Terrace-Kitimat",
    "lat": "54.468498",
    "lon": "-128.576009"
  },
  {
    "code": "CYXU",
    "name": "London International Airport",
    "lat": "43.032845",
    "lon": "-81.149003"
  },
  {
    "code": "CYXX",
    "name": "Abbotsford International Airport",
    "lat": "49.025299",
    "lon": "-122.361"
  },
  {
    "code": "CYXY",
    "name": "Whitehorse / Erik Nielsen International Airport",
    "lat": "60.708533",
    "lon": "-135.065705"
  },
  {
    "code": "CYXZ",
    "name": "Wawa Airport",
    "lat": "47.96670150756836",
    "lon": "-84.78669738769531"
  },
  {
    "code": "CYYB",
    "name": "North Bay Jack Garland Airport",
    "lat": "46.363602",
    "lon": "-79.422798"
  },
  {
    "code": "CYYC",
    "name": "Calgary International Airport",
    "lat": "51.118822",
    "lon": "-114.009933"
  },
  {
    "code": "CYYD",
    "name": "Smithers Airport",
    "lat": "54.82469940185547",
    "lon": "-127.18299865722656"
  },
  {
    "code": "CYYE",
    "name": "Fort Nelson Airport",
    "lat": "58.8363990784",
    "lon": "-122.597000122"
  },
  {
    "code": "CYYF",
    "name": "Penticton Airport",
    "lat": "49.46310043334961",
    "lon": "-119.60199737548828"
  },
  {
    "code": "CYYG",
    "name": "Charlottetown Airport",
    "lat": "46.288911",
    "lon": "-63.125174"
  },
  {
    "code": "CYYH",
    "name": "Taloyoak Airport",
    "lat": "69.5467",
    "lon": "-93.576698"
  },
  {
    "code": "CYYJ",
    "name": "Victoria International Airport",
    "lat": "48.647201",
    "lon": "-123.427792"
  },
  {
    "code": "CYYN",
    "name": "Swift Current Airport",
    "lat": "50.291900634799994",
    "lon": "-107.691001892"
  },
  {
    "code": "CYYQ",
    "name": "Churchill Airport",
    "lat": "58.739200592041016",
    "lon": "-94.06500244140625"
  },
  {
    "code": "CYYR",
    "name": "Goose Bay Airport",
    "lat": "53.3191986084",
    "lon": "-60.4258003235"
  },
  {
    "code": "CYYT",
    "name": "St. John's International Airport",
    "lat": "47.618599",
    "lon": "-52.7519"
  },
  {
    "code": "CYYU",
    "name": "Kapuskasing Airport",
    "lat": "49.411587",
    "lon": "-82.469645"
  },
  {
    "code": "CYYW",
    "name": "Armstrong Airport",
    "lat": "50.29029846191406",
    "lon": "-88.90969848632812"
  },
  {
    "code": "CYYY",
    "name": "Mont Joli Airport",
    "lat": "48.60860061645508",
    "lon": "-68.20809936523438"
  },
  {
    "code": "CYYZ",
    "name": "Toronto Pearson International Airport",
    "lat": "43.675935",
    "lon": "-79.629421"
  },
  {
    "code": "CYZF",
    "name": "Yellowknife International Airport",
    "lat": "62.462799",
    "lon": "-114.440002"
  },
  {
    "code": "CYZG",
    "name": "Salluit Airport",
    "lat": "62.179401",
    "lon": "-75.667198"
  },
  {
    "code": "CYZP",
    "name": "Sandspit Airport",
    "lat": "53.25429916379999",
    "lon": "-131.813995361"
  },
  {
    "code": "CYZR",
    "name": "Chris Hadfield Airport",
    "lat": "42.999401",
    "lon": "-82.308899"
  },
  {
    "code": "CYZS",
    "name": "Coral Harbour Airport",
    "lat": "64.1932983398",
    "lon": "-83.3593978882"
  },
  {
    "code": "CYZT",
    "name": "Port Hardy Airport",
    "lat": "50.680599212646484",
    "lon": "-127.36699676513672"
  },
  {
    "code": "CYZU",
    "name": "Whitecourt Airport",
    "lat": "54.143902",
    "lon": "-115.787003"
  },
  {
    "code": "CYZV",
    "name": "Sept-Îles Airport",
    "lat": "50.22330093383789",
    "lon": "-66.2656021118164"
  },
  {
    "code": "CYZY",
    "name": "Mackenzie Airport",
    "lat": "55.297786",
    "lon": "-123.133907"
  },
  {
    "code": "CZAM",
    "name": "Shuswap Regional Airport",
    "lat": "50.682802",
    "lon": "-119.228996"
  },
  {
    "code": "CZBB",
    "name": "Boundary Bay Airport",
    "lat": "49.074338",
    "lon": "-123.006877"
  },
  {
    "code": "CZBF",
    "name": "Bathurst Airport",
    "lat": "47.6297",
    "lon": "-65.738899"
  },
  {
    "code": "CZBM",
    "name": "Bromont (Roland Désourdy) Airport",
    "lat": "45.290798",
    "lon": "-72.741402"
  },
  {
    "code": "CZEM",
    "name": "Eastmain River Airport",
    "lat": "52.226398",
    "lon": "-78.522499"
  },
  {
    "code": "CZFA",
    "name": "Faro Airport",
    "lat": "62.20750045776367",
    "lon": "-133.37600708007812"
  },
  {
    "code": "CZFM",
    "name": "Fort Mcpherson Airport",
    "lat": "67.406993",
    "lon": "-134.860182"
  },
  {
    "code": "CZFN",
    "name": "Tulita Airport",
    "lat": "64.909496",
    "lon": "-125.570297"
  },
  {
    "code": "CZGF",
    "name": "Grand Forks Airport",
    "lat": "49.015598",
    "lon": "-118.431"
  },
  {
    "code": "CZGI",
    "name": "Gods River Airport",
    "lat": "54.839699",
    "lon": "-94.078598"
  },
  {
    "code": "CZHP",
    "name": "High Prairie Airport",
    "lat": "55.3936",
    "lon": "-116.474998"
  },
  {
    "code": "CZJG",
    "name": "Jenpeg Airport",
    "lat": "54.51890182495117",
    "lon": "-98.04609680175781"
  },
  {
    "code": "CZJN",
    "name": "Swan River Airport",
    "lat": "52.120602",
    "lon": "-101.236"
  },
  {
    "code": "CZKE",
    "name": "Kashechewan Airport",
    "lat": "52.282501",
    "lon": "-81.677803"
  },
  {
    "code": "CZML",
    "name": "South Cariboo Region / 108 Mile Airport",
    "lat": "51.736099243199995",
    "lon": "-121.333000183"
  },
  {
    "code": "CZMT",
    "name": "Masset Airport",
    "lat": "54.0275",
    "lon": "-132.125"
  },
  {
    "code": "CZPB",
    "name": "Sachigo Lake Airport",
    "lat": "53.890885",
    "lon": "-92.195935"
  },
  {
    "code": "CZRJ",
    "name": "Round Lake (Weagamow Lake) Airport",
    "lat": "52.9436",
    "lon": "-91.312798"
  },
  {
    "code": "CZSJ",
    "name": "Sandy Lake Airport",
    "lat": "53.06420135498047",
    "lon": "-93.34439849853516"
  },
  {
    "code": "CZSN",
    "name": "South Indian Lake Airport",
    "lat": "56.792801",
    "lon": "-98.907204"
  },
  {
    "code": "CZTM",
    "name": "Shamattawa Airport",
    "lat": "55.86356",
    "lon": "-92.081137"
  },
  {
    "code": "CZUC",
    "name": "Ignace Municipal Airport",
    "lat": "49.428204",
    "lon": "-91.720418"
  },
  {
    "code": "CZUM",
    "name": "Churchill Falls Airport",
    "lat": "53.5619010925293",
    "lon": "-64.10639953613281"
  },
  {
    "code": "CZVL",
    "name": "Edmonton / Villeneuve Airport",
    "lat": "53.6675",
    "lon": "-113.853996"
  },
  {
    "code": "CZWH",
    "name": "Lac Brochet Airport",
    "lat": "58.614279",
    "lon": "-101.468954"
  },
  {
    "code": "CZWL",
    "name": "Wollaston Lake Airport",
    "lat": "58.106899",
    "lon": "-103.171997"
  },
  {
    "code": "KIUA",
    "name": "Canandaigua Airport",
    "lat": "42.908902",
    "lon": "-77.325226"
  },
  {
    "code": "DAAB",
    "name": "Blida Airport",
    "lat": "36.503601",
    "lon": "2.81417"
  },
  {
    "code": "DAAD",
    "name": "Bou Saada Airport",
    "lat": "35.3325",
    "lon": "4.20639"
  },
  {
    "code": "DAAE",
    "name": "Soummam–Abane Ramdane Airport",
    "lat": "36.712547",
    "lon": "5.069909"
  },
  {
    "code": "DAAG",
    "name": "Houari Boumediene Airport",
    "lat": "36.693886",
    "lon": "3.214531"
  },
  {
    "code": "DAAJ",
    "name": "Tiska Djanet Airport",
    "lat": "24.285448",
    "lon": "9.463652"
  },
  {
    "code": "DAAK",
    "name": "Boufarik Air Base",
    "lat": "36.545799",
    "lon": "2.87611"
  },
  {
    "code": "DAAN",
    "name": "Reggane Air Base",
    "lat": "26.712418",
    "lon": "0.288219"
  },
  {
    "code": "DAAP",
    "name": "Illizi Takhamalt Airport",
    "lat": "26.723499",
    "lon": "8.62265"
  },
  {
    "code": "DAAS",
    "name": "Ain Arnat Airport",
    "lat": "36.178488",
    "lon": "5.329909"
  },
  {
    "code": "DAAT",
    "name": "Aguenar – Hadj Bey Akhamok Airport",
    "lat": "22.810992",
    "lon": "5.450832"
  },
  {
    "code": "DAAV",
    "name": "Jijel Ferhat Abbas Airport",
    "lat": "36.794125",
    "lon": "5.873652"
  },
  {
    "code": "DAAY",
    "name": "Mecheria Airport",
    "lat": "33.535900116",
    "lon": "-0.242353007197"
  },
  {
    "code": "DAAZ",
    "name": "Relizane Airport",
    "lat": "35.752955",
    "lon": "0.625877"
  },
  {
    "code": "DABB",
    "name": "Annaba Rabah Bitat Airport",
    "lat": "36.826781",
    "lon": "7.81334"
  },
  {
    "code": "DABC",
    "name": "Mohamed Boudiaf International Airport",
    "lat": "36.276001",
    "lon": "6.62039"
  },
  {
    "code": "DABS",
    "name": "Cheikh Larbi Tébessi Airport",
    "lat": "35.4315986633",
    "lon": "8.12071990967"
  },
  {
    "code": "DABT",
    "name": "Batna Mostefa Ben Boulaid Airport",
    "lat": "35.752102",
    "lon": "6.30859"
  },
  {
    "code": "DAFH",
    "name": "Hassi R'Mel Airport",
    "lat": "32.930401",
    "lon": "3.31154"
  },
  {
    "code": "DAOB",
    "name": "Abdelhafid Boussouf Bou Chekif Airport",
    "lat": "35.341099",
    "lon": "1.46315"
  },
  {
    "code": "DAOE",
    "name": "Bousfer Air Base",
    "lat": "35.735401",
    "lon": "-0.805389"
  },
  {
    "code": "DAOF",
    "name": "Tindouf Airport",
    "lat": "27.7003993988",
    "lon": "-8.167099952700001"
  },
  {
    "code": "DAOI",
    "name": "Chlef Aboubakr Belkaid International Airport",
    "lat": "36.216614",
    "lon": "1.341114"
  },
  {
    "code": "DAOL",
    "name": "Oran Tafraoui Airport",
    "lat": "35.5424",
    "lon": "-0.532278"
  },
  {
    "code": "DAON",
    "name": "Zenata – Messali El Hadj Airport",
    "lat": "35.012732",
    "lon": "-1.457117"
  },
  {
    "code": "DAOO",
    "name": "Oran Es-Sénia (Ahmed Ben Bella) International Airport",
    "lat": "35.620648",
    "lon": "-0.622486"
  },
  {
    "code": "DAOR",
    "name": "Béchar Boudghene Ben Ali Lotfi Airport",
    "lat": "31.645700454711914",
    "lon": "-2.269860029220581"
  },
  {
    "code": "DAOS",
    "name": "Sidi Bel Abbes Airport",
    "lat": "35.1717987061",
    "lon": "-0.593275010586"
  },
  {
    "code": "DAOV",
    "name": "Ghriss Airport",
    "lat": "35.207699",
    "lon": "0.147142"
  },
  {
    "code": "DAOY",
    "name": "El Bayadh Airport",
    "lat": "33.721667",
    "lon": "1.0925"
  },
  {
    "code": "DATG",
    "name": "In Guezzam Airport",
    "lat": "19.560518",
    "lon": "5.749326"
  },
  {
    "code": "DATM",
    "name": "Bordj Badji Mokhtar Airport",
    "lat": "21.3778",
    "lon": "0.92698"
  },
  {
    "code": "DAUA",
    "name": "Touat-Cheikh Sidi Mohamed Belkebir Airport",
    "lat": "27.837601",
    "lon": "-0.186414"
  },
  {
    "code": "DAUB",
    "name": "Biskra - Mohamed Khider Airport",
    "lat": "34.79318",
    "lon": "5.738899"
  },
  {
    "code": "DAUE",
    "name": "El Golea Airport",
    "lat": "30.580732",
    "lon": "2.861595"
  },
  {
    "code": "DAUG",
    "name": "Noumérat - Moufdi Zakaria Airport",
    "lat": "32.384102",
    "lon": "3.79411"
  },
  {
    "code": "DAUH",
    "name": "Hassi Messaoud-Oued Irara Krim Belkacem Airport",
    "lat": "31.673",
    "lon": "6.14044"
  },
  {
    "code": "DAUI",
    "name": "In Salah Airport",
    "lat": "27.250999",
    "lon": "2.51202"
  },
  {
    "code": "DAUK",
    "name": "Touggourt Sidi Madhi Airport",
    "lat": "33.067799",
    "lon": "6.08867"
  },
  {
    "code": "DAUL",
    "name": "Laghouat - Molay Ahmed Medeghri Airport",
    "lat": "33.7644",
    "lon": "2.92834"
  },
  {
    "code": "DAUO",
    "name": "Guemar Airport - مطار قمار بالوادي",
    "lat": "33.511398",
    "lon": "6.77679"
  },
  {
    "code": "DAUT",
    "name": "Timimoun Airport",
    "lat": "29.237101",
    "lon": "0.276033"
  },
  {
    "code": "DAUU",
    "name": "Ain Beida Airport",
    "lat": "31.9172",
    "lon": "5.41278"
  },
  {
    "code": "DAUZ",
    "name": "Zarzaitine - In Aménas Airport",
    "lat": "28.0515",
    "lon": "9.64291"
  },
  {
    "code": "DBBB",
    "name": "Cotonou Cadjehoun International Airport",
    "lat": "6.35723",
    "lon": "2.38435"
  },
  {
    "code": "EDSV",
    "name": "Wächtersberg-Hub Glider Airfield",
    "lat": "48.614931",
    "lon": "8.755457"
  },
  {
    "code": "EDTE",
    "name": "Eutingen Airfield",
    "lat": "48.485439",
    "lon": "8.778033"
  },
  {
    "code": "EDDB",
    "name": "Berlin-Schönefeld Airport",
    "lat": "52.380001",
    "lon": "13.5225"
  },
  {
    "code": "EDVM",
    "name": "Kassel  Mittelfeld",
    "lat": "51.33505",
    "lon": "9.484347"
  },
  {
    "code": "EDDT",
    "name": "Berlin-Tegel Otto Lilienthal International Airport",
    "lat": "52.557675",
    "lon": "13.29185"
  },
  {
    "code": "EDOP",
    "name": "Schwerin Parchim International Airport",
    "lat": "53.426998",
    "lon": "11.7834"
  },
  {
    "code": "ETSA",
    "name": "Landsberg am Lech Air Base",
    "lat": "48.070599",
    "lon": "10.906"
  },
  {
    "code": "EDDM",
    "name": "Flughafen München-Riem",
    "lat": "48.137798",
    "lon": "11.6903"
  },
  {
    "code": "WAVD",
    "name": "Nop Goliat Dekai Airport",
    "lat": "-4.8557",
    "lon": "139.482006"
  },
  {
    "code": "DFFD",
    "name": "Ouagadougou Thomas Sankara International Airport",
    "lat": "12.3532",
    "lon": "-1.51242"
  },
  {
    "code": "DFOO",
    "name": "Bobo Dioulasso Airport",
    "lat": "11.1601",
    "lon": "-4.33097"
  },
  {
    "code": "DGAA",
    "name": "Kotoka International Airport",
    "lat": "5.605189800262451",
    "lon": "-0.16678600013256073"
  },
  {
    "code": "DGAH",
    "name": "Ho Airport",
    "lat": "6.579691",
    "lon": "0.532547"
  },
  {
    "code": "DGLE",
    "name": "Yakubu Tali International Airport",
    "lat": "9.553909",
    "lon": "-0.86606"
  },
  {
    "code": "DGLW",
    "name": "Wa Airport",
    "lat": "10.0827",
    "lon": "-2.50769"
  },
  {
    "code": "DGSI",
    "name": "Prempeh I International Airport",
    "lat": "6.71456",
    "lon": "-1.59082"
  },
  {
    "code": "DGSN",
    "name": "Sunyani Airport",
    "lat": "7.36183",
    "lon": "-2.32876"
  },
  {
    "code": "DGTK",
    "name": "Takoradi Airport",
    "lat": "4.896059989929199",
    "lon": "-1.7747600078582764"
  },
  {
    "code": "DIAP",
    "name": "Félix-Houphouët-Boigny International Airport",
    "lat": "5.26139",
    "lon": "-3.92629"
  },
  {
    "code": "DIBK",
    "name": "Bouaké Airport",
    "lat": "7.7388",
    "lon": "-5.07367"
  },
  {
    "code": "DIBU",
    "name": "Soko Airport",
    "lat": "8.01722",
    "lon": "-2.76194"
  },
  {
    "code": "DIDL",
    "name": "Daloa Airport",
    "lat": "6.79281",
    "lon": "-6.47319"
  },
  {
    "code": "DIKO",
    "name": "Korhogo Airport",
    "lat": "9.38718",
    "lon": "-5.55666"
  },
  {
    "code": "DIMN",
    "name": "Man Airport",
    "lat": "7.27207",
    "lon": "-7.58736"
  },
  {
    "code": "DISP",
    "name": "San Pedro Airport",
    "lat": "4.74672",
    "lon": "-6.66082"
  },
  {
    "code": "DIYO",
    "name": "Yamoussoukro International Airport",
    "lat": "6.90317",
    "lon": "-5.36558"
  },
  {
    "code": "DNEK",
    "name": "Eket Airport",
    "lat": "4.642841",
    "lon": "7.949139"
  },
  {
    "code": "DNES",
    "name": "Escravos Airport",
    "lat": "5.61673",
    "lon": "5.188485"
  },
  {
    "code": "DNAA",
    "name": "Nnamdi Azikiwe International Airport",
    "lat": "9.00679",
    "lon": "7.26317"
  },
  {
    "code": "DNAI",
    "name": "Akwa Ibom International Airport",
    "lat": "4.8725",
    "lon": "8.093"
  },
  {
    "code": "DNAK",
    "name": "Akure Airport",
    "lat": "7.246739864349365",
    "lon": "5.3010101318359375"
  },
  {
    "code": "DNAS",
    "name": "Asaba International Airport",
    "lat": "6.204167",
    "lon": "6.665278"
  },
  {
    "code": "DNBC",
    "name": "Sir Abubakar Tafawa Balewa Bauchi State International Airport",
    "lat": "10.482833",
    "lon": "9.744"
  },
  {
    "code": "DNBE",
    "name": "Benin Airport",
    "lat": "6.316979885101318",
    "lon": "5.5995001792907715"
  },
  {
    "code": "DNCA",
    "name": "Margaret Ekpo International Airport",
    "lat": "4.976019859313965",
    "lon": "8.347200393676758"
  },
  {
    "code": "DNDS",
    "name": "Dutse International Airport",
    "lat": "11.795131",
    "lon": "9.301164"
  },
  {
    "code": "DNEN",
    "name": "Akanu Ibiam International Airport",
    "lat": "6.473718",
    "lon": "7.560463"
  },
  {
    "code": "DNFB",
    "name": "Finima Bonny Airport",
    "lat": "4.40481",
    "lon": "7.180867"
  },
  {
    "code": "DNGO",
    "name": "Gombe Lawanti International Airport",
    "lat": "10.298889",
    "lon": "10.9"
  },
  {
    "code": "DNIB",
    "name": "Ibadan Airport",
    "lat": "7.362460136413574",
    "lon": "3.97832989692688"
  },
  {
    "code": "DNIL",
    "name": "General Tunde Idiagbon International Airport",
    "lat": "8.44021",
    "lon": "4.49392"
  },
  {
    "code": "DNIM",
    "name": "Sam Mbakwe International Cargo Airport",
    "lat": "5.42706",
    "lon": "7.20603"
  },
  {
    "code": "DNJO",
    "name": "Yakubu Gowon Airport",
    "lat": "9.639829635620117",
    "lon": "8.869050025939941"
  },
  {
    "code": "DNKA",
    "name": "Kaduna International Airport",
    "lat": "10.696",
    "lon": "7.32011"
  },
  {
    "code": "DNKN",
    "name": "Mallam Aminu Kano International Airport",
    "lat": "12.045613",
    "lon": "8.523566"
  },
  {
    "code": "DNMA",
    "name": "Maiduguri International Airport",
    "lat": "11.854163",
    "lon": "13.080702"
  },
  {
    "code": "DNMK",
    "name": "Makurdi Airport",
    "lat": "7.70388",
    "lon": "8.61394"
  },
  {
    "code": "DNMM",
    "name": "Murtala Muhammed International Airport",
    "lat": "6.57737",
    "lon": "3.32116"
  },
  {
    "code": "DNMN",
    "name": "Minna Airport",
    "lat": "9.652170181274414",
    "lon": "6.462259769439697"
  },
  {
    "code": "DNPO",
    "name": "Port Harcourt International Airport",
    "lat": "5.01549",
    "lon": "6.94959"
  },
  {
    "code": "DNSO",
    "name": "Sadiq Abubakar III International Airport",
    "lat": "12.915729",
    "lon": "5.207547"
  },
  {
    "code": "DNYO",
    "name": "Yola Airport",
    "lat": "9.257550239562988",
    "lon": "12.430399894714355"
  },
  {
    "code": "DNZA",
    "name": "Zaria Airport",
    "lat": "11.1302",
    "lon": "7.68581"
  },
  {
    "code": "DRRM",
    "name": "Maradi Airport",
    "lat": "13.5025",
    "lon": "7.12675"
  },
  {
    "code": "DRRN",
    "name": "Diori Hamani International Airport",
    "lat": "13.4815",
    "lon": "2.18361"
  },
  {
    "code": "DRRT",
    "name": "Tahoua Airport",
    "lat": "14.8757",
    "lon": "5.26536"
  },
  {
    "code": "DRZA",
    "name": "Mano Dayak International Airport",
    "lat": "16.966",
    "lon": "8.00011"
  },
  {
    "code": "DRZD",
    "name": "Dirkou Airport",
    "lat": "18.963931",
    "lon": "12.864132"
  },
  {
    "code": "DRZF",
    "name": "Diffa Airport",
    "lat": "13.3729",
    "lon": "12.6267"
  },
  {
    "code": "DRZI",
    "name": "Iferouane Airport",
    "lat": "19.066198",
    "lon": "8.41496"
  },
  {
    "code": "DRZR",
    "name": "Zinder Airport",
    "lat": "13.779000282287598",
    "lon": "8.983759880065918"
  },
  {
    "code": "DTKA",
    "name": "Tabarka-Aïn Draham International Airport",
    "lat": "36.98",
    "lon": "8.87694"
  },
  {
    "code": "DTMB",
    "name": "Monastir Habib Bourguiba International Airport",
    "lat": "35.75809860229492",
    "lon": "10.75469970703125"
  },
  {
    "code": "DTNH",
    "name": "Enfidha - Hammamet International Airport",
    "lat": "36.075833",
    "lon": "10.438611"
  },
  {
    "code": "DTTA",
    "name": "Tunis Carthage International Airport",
    "lat": "36.851002",
    "lon": "10.2272"
  },
  {
    "code": "DTTD",
    "name": "Remada Air Base",
    "lat": "32.306198",
    "lon": "10.3821"
  },
  {
    "code": "DTTF",
    "name": "Gafsa Ksar International Airport",
    "lat": "34.422000885009766",
    "lon": "8.822500228881836"
  },
  {
    "code": "DTTG",
    "name": "Gabès Matmata International Airport",
    "lat": "33.733691",
    "lon": "9.91941"
  },
  {
    "code": "DTTI",
    "name": "Borj El Amri Airport",
    "lat": "36.721298",
    "lon": "9.94315"
  },
  {
    "code": "DTTJ",
    "name": "Djerba Zarzis International Airport",
    "lat": "33.873719",
    "lon": "10.7773"
  },
  {
    "code": "DTTR",
    "name": "El Borma Airport",
    "lat": "31.7043",
    "lon": "9.25462"
  },
  {
    "code": "DTTX",
    "name": "Sfax Thyna International Airport",
    "lat": "34.717999",
    "lon": "10.691"
  },
  {
    "code": "DTTZ",
    "name": "Tozeur Nefta International Airport",
    "lat": "33.939701080322266",
    "lon": "8.110560417175293"
  },
  {
    "code": "DXNG",
    "name": "Niamtougou International Airport",
    "lat": "9.766675",
    "lon": "1.090944"
  },
  {
    "code": "DXXX",
    "name": "Lomé–Tokoin International Airport",
    "lat": "6.16561",
    "lon": "1.25451"
  },
  {
    "code": "KE55",
    "name": "Ocean Ridge Airport",
    "lat": "38.801602",
    "lon": "-123.530504"
  },
  {
    "code": "EBAW",
    "name": "Antwerp International Airport (Deurne)",
    "lat": "51.190667",
    "lon": "4.463153"
  },
  {
    "code": "EBBE",
    "name": "Beauvechain Air Base",
    "lat": "50.758598",
    "lon": "4.76833"
  },
  {
    "code": "EBBL",
    "name": "Kleine Brogel Air Base",
    "lat": "51.168301",
    "lon": "5.47"
  },
  {
    "code": "EBBR",
    "name": "Brussels Airport",
    "lat": "50.901402",
    "lon": "4.48444"
  },
  {
    "code": "EBBX",
    "name": "Jehonville Air Base",
    "lat": "49.891483",
    "lon": "5.227405"
  },
  {
    "code": "EBCI",
    "name": "Brussels South Charleroi Airport",
    "lat": "50.461963",
    "lon": "4.459562"
  },
  {
    "code": "EBCV",
    "name": "Chièvres Air Base",
    "lat": "50.575801849365234",
    "lon": "3.8310000896453857"
  },
  {
    "code": "EBFN",
    "name": "Koksijde Air Base",
    "lat": "51.090302",
    "lon": "2.65278"
  },
  {
    "code": "EBFS",
    "name": "Florennes Air Base",
    "lat": "50.2433013916",
    "lon": "4.64583015442"
  },
  {
    "code": "EBGB",
    "name": "Grimbergen Airfield",
    "lat": "50.948546",
    "lon": "4.39181"
  },
  {
    "code": "EBKT",
    "name": "Flanders International Airport Kortrijk-Wevelgem",
    "lat": "50.818878",
    "lon": "3.209551"
  },
  {
    "code": "EBLG",
    "name": "Liège Airport",
    "lat": "50.638574",
    "lon": "5.443897"
  },
  {
    "code": "EBOS",
    "name": "Ostend-Bruges International Airport",
    "lat": "51.1998",
    "lon": "2.874673"
  },
  {
    "code": "EBSP",
    "name": "Spa-La Sauvenière Airfield",
    "lat": "50.482006",
    "lon": "5.913434"
  },
  {
    "code": "EBST",
    "name": "Sint-Truiden / Brustem Airfield",
    "lat": "50.790772",
    "lon": "5.19958"
  },
  {
    "code": "EBSU",
    "name": "Saint Hubert Air Base",
    "lat": "50.034401",
    "lon": "5.44081"
  },
  {
    "code": "EBUL",
    "name": "Ursel Air Base",
    "lat": "51.144199",
    "lon": "3.47556"
  },
  {
    "code": "EBZR",
    "name": "Oostmalle Airfield",
    "lat": "51.269092",
    "lon": "4.762428"
  },
  {
    "code": "SERO",
    "name": "Old Santa Rosa Airport",
    "lat": "-3.435141",
    "lon": "-79.977604"
  },
  {
    "code": "EDAB",
    "name": "Bautzen Airfield",
    "lat": "51.193611",
    "lon": "14.519722"
  },
  {
    "code": "EDAC",
    "name": "Leipzig–Altenburg Airport",
    "lat": "50.981945",
    "lon": "12.506389"
  },
  {
    "code": "EDAD",
    "name": "Dessau Airfield",
    "lat": "51.8318",
    "lon": "12.184011"
  },
  {
    "code": "EDAE",
    "name": "Eisenhüttenstadt Airfield",
    "lat": "52.197199",
    "lon": "14.585696"
  },
  {
    "code": "EDAG",
    "name": "Großrückerswalde Airfield",
    "lat": "50.644169",
    "lon": "13.126389"
  },
  {
    "code": "EDAH",
    "name": "Heringsdorf Airport",
    "lat": "53.8787",
    "lon": "14.1523"
  },
  {
    "code": "EDAM",
    "name": "Merseburg Airfield",
    "lat": "51.362564",
    "lon": "11.94113"
  },
  {
    "code": "EDAN",
    "name": "Neustadt-Glewe Airfield",
    "lat": "53.362444",
    "lon": "11.613764"
  },
  {
    "code": "EDAQ",
    "name": "Halle-Oppin Airfield",
    "lat": "51.552223",
    "lon": "12.053889"
  },
  {
    "code": "EDAV",
    "name": "Eberswalde-Finow Airfield",
    "lat": "52.826313",
    "lon": "13.701324"
  },
  {
    "code": "EDAW",
    "name": "Roitzschjora Airfield",
    "lat": "51.577778",
    "lon": "12.494444"
  },
  {
    "code": "EDAX",
    "name": "Müritz Airpark",
    "lat": "53.306389",
    "lon": "12.752222"
  },
  {
    "code": "EDAY",
    "name": "Strausberg Airfield",
    "lat": "52.580555",
    "lon": "13.916667"
  },
  {
    "code": "EDAZ",
    "name": "Schönhagen Airfield",
    "lat": "52.204631",
    "lon": "13.159526"
  },
  {
    "code": "EDBC",
    "name": "Cochstedt Airport",
    "lat": "51.8564",
    "lon": "11.4203"
  },
  {
    "code": "EDBH",
    "name": "Stralsund-Barth Airport",
    "lat": "54.338253",
    "lon": "12.710515"
  },
  {
    "code": "EDBJ",
    "name": "Jena-Schöngleina Airfield",
    "lat": "50.915345",
    "lon": "11.714201"
  },
  {
    "code": "EDBK",
    "name": "Kyritz Airfield",
    "lat": "52.918888",
    "lon": "12.425278"
  },
  {
    "code": "EDBL",
    "name": "Laucha Airfield",
    "lat": "51.245834",
    "lon": "11.693333"
  },
  {
    "code": "EDBM",
    "name": "Magdeburg City Airfield",
    "lat": "52.073612",
    "lon": "11.626389"
  },
  {
    "code": "EDBN",
    "name": "Neubrandenburg Trollenhagen Airport",
    "lat": "53.6022",
    "lon": "13.306"
  },
  {
    "code": "EDBR",
    "name": "Rothenburg/Görlitz Airfield",
    "lat": "51.363335",
    "lon": "14.95"
  },
  {
    "code": "EDBT",
    "name": "Allstedt Airfield",
    "lat": "51.380554",
    "lon": "11.446667"
  },
  {
    "code": "EDBW",
    "name": "Werneuchen Airfield",
    "lat": "52.631668",
    "lon": "13.766944"
  },
  {
    "code": "EDCA",
    "name": "Anklam Otto Lilienthal Airfield",
    "lat": "53.832801",
    "lon": "13.668607"
  },
  {
    "code": "EDCG",
    "name": "Rügen Airport",
    "lat": "54.38347",
    "lon": "13.325542"
  },
  {
    "code": "EDCM",
    "name": "Kamenz Airfield",
    "lat": "51.296944",
    "lon": "14.1275"
  },
  {
    "code": "EDCO",
    "name": "Obermehler-Schlotheim Airfield",
    "lat": "51.267776",
    "lon": "10.634722"
  },
  {
    "code": "EDCP",
    "name": "Peenemünde Airport",
    "lat": "54.15778",
    "lon": "13.774444"
  },
  {
    "code": "EDCQ",
    "name": "Aschersleben Airfield",
    "lat": "51.766945",
    "lon": "11.498333"
  },
  {
    "code": "EDCS",
    "name": "Saarmund Airfield",
    "lat": "52.308334",
    "lon": "13.100556"
  },
  {
    "code": "EDCX",
    "name": "Purkshof Airfield",
    "lat": "54.161667",
    "lon": "12.248611"
  },
  {
    "code": "EDDC",
    "name": "Dresden Airport",
    "lat": "51.134123",
    "lon": "13.767831"
  },
  {
    "code": "EDDE",
    "name": "Erfurt-Weimar Airport",
    "lat": "50.978281",
    "lon": "10.960713"
  },
  {
    "code": "EDDF",
    "name": "Frankfurt Main Airport",
    "lat": "50.026706",
    "lon": "8.55835"
  },
  {
    "code": "EDDG",
    "name": "Münster Osnabrück Airport",
    "lat": "52.133816",
    "lon": "7.688482"
  },
  {
    "code": "EDDH",
    "name": "Hamburg Helmut Schmidt Airport",
    "lat": "53.630402",
    "lon": "9.98823"
  },
  {
    "code": "EDDK",
    "name": "Cologne Bonn Airport",
    "lat": "50.865898",
    "lon": "7.14274"
  },
  {
    "code": "EDDL",
    "name": "Düsseldorf Airport",
    "lat": "51.289501",
    "lon": "6.76678"
  },
  {
    "code": "EDDN",
    "name": "Nuremberg Airport",
    "lat": "49.498699",
    "lon": "11.078056"
  },
  {
    "code": "EDDP",
    "name": "Leipzig/Halle Airport",
    "lat": "51.420657",
    "lon": "12.232705"
  },
  {
    "code": "EDDR",
    "name": "Saarbrücken Airport",
    "lat": "49.214545",
    "lon": "7.109735"
  },
  {
    "code": "EDDS",
    "name": "Stuttgart Airport",
    "lat": "48.689899",
    "lon": "9.22196"
  },
  {
    "code": "EDDV",
    "name": "Hannover Airport",
    "lat": "52.461102",
    "lon": "9.68508"
  },
  {
    "code": "EDDW",
    "name": "Bremen Airport",
    "lat": "53.046786",
    "lon": "8.78932"
  },
  {
    "code": "EDER",
    "name": "Wasserkuppe Airfield",
    "lat": "50.498807",
    "lon": "9.954166"
  },
  {
    "code": "EDFB",
    "name": "Reichelsheim Airfield",
    "lat": "50.337973",
    "lon": "8.878984"
  },
  {
    "code": "EDFE",
    "name": "Frankfurt-Egelsbach Airport",
    "lat": "49.96",
    "lon": "8.643043"
  },
  {
    "code": "EDFH",
    "name": "Frankfurt-Hahn Airport",
    "lat": "49.946353",
    "lon": "7.261734"
  },
  {
    "code": "EDFM",
    "name": "Mannheim-City Airport",
    "lat": "49.473057",
    "lon": "8.514167"
  },
  {
    "code": "EDFQ",
    "name": "Allendorf-Eder Airfield",
    "lat": "51.035268",
    "lon": "8.681002"
  },
  {
    "code": "EDFR",
    "name": "Rothenburg ob der Tauber Airfield",
    "lat": "49.388332",
    "lon": "10.218056"
  },
  {
    "code": "EDFW",
    "name": "Würzburg-Schenkenturm Airfield",
    "lat": "49.81778",
    "lon": "9.8975"
  },
  {
    "code": "EDFZ",
    "name": "Mainz-Finthen Airfield",
    "lat": "49.967499",
    "lon": "8.147222"
  },
  {
    "code": "EDGE",
    "name": "Eisenach-Kindel Airport",
    "lat": "50.991604",
    "lon": "10.47973"
  },
  {
    "code": "EDGM",
    "name": "Mosbach-Lohrbach Airfield",
    "lat": "49.398888",
    "lon": "9.123889"
  },
  {
    "code": "EDGS",
    "name": "Siegerland Airport",
    "lat": "50.707699",
    "lon": "8.08297"
  },
  {
    "code": "EDHE",
    "name": "Uetersen-Heist Airfield",
    "lat": "53.645477",
    "lon": "9.703503"
  },
  {
    "code": "EDHF",
    "name": "Itzehoe Hungriger Wolf Airfield",
    "lat": "53.992009",
    "lon": "9.576409"
  },
  {
    "code": "EDHI",
    "name": "Hamburg-Finkenwerder Airport",
    "lat": "53.5352783203125",
    "lon": "9.835556030273438"
  },
  {
    "code": "EDHK",
    "name": "Kiel-Holtenau Airport",
    "lat": "54.37957",
    "lon": "10.145266"
  },
  {
    "code": "EDHL",
    "name": "Lübeck Blankensee Airport",
    "lat": "53.805401",
    "lon": "10.7192"
  },
  {
    "code": "EDJA",
    "name": "Memmingen Allgau Airport",
    "lat": "47.988092",
    "lon": "10.238248"
  },
  {
    "code": "EDKA",
    "name": "Aachen-Merzbrück Airport",
    "lat": "50.823055",
    "lon": "6.186389"
  },
  {
    "code": "EDKV",
    "name": "Dahlemer Binz Airfield",
    "lat": "50.40611",
    "lon": "6.530256"
  },
  {
    "code": "EDKZ",
    "name": "Meinerzhagen Airfield",
    "lat": "51.099399",
    "lon": "7.596896"
  },
  {
    "code": "EDLC",
    "name": "Kamp-Lintfort Airfield",
    "lat": "51.529167",
    "lon": "6.536111"
  },
  {
    "code": "EDLD",
    "name": "Dinslaken-Schwarze Heide Airfield",
    "lat": "51.616018",
    "lon": "6.861262"
  },
  {
    "code": "EDLE",
    "name": "Essen-Mülheim Airport",
    "lat": "51.402302",
    "lon": "6.93733"
  },
  {
    "code": "EDLI",
    "name": "Bielefeld Airport",
    "lat": "51.964722",
    "lon": "8.544444"
  },
  {
    "code": "EDLN",
    "name": "Mönchengladbach Airport",
    "lat": "51.230278",
    "lon": "6.504444"
  },
  {
    "code": "EDLO",
    "name": "Oerlinghausen Airfield",
    "lat": "51.93222",
    "lon": "8.661667"
  },
  {
    "code": "EDLP",
    "name": "Paderborn Lippstadt Airport",
    "lat": "51.612527",
    "lon": "8.617459"
  },
  {
    "code": "EDLR",
    "name": "Paderborn-Haxterberg Airfield",
    "lat": "51.688332",
    "lon": "8.775278"
  },
  {
    "code": "EDLS",
    "name": "Stadtlohn-Vreden Airfield",
    "lat": "51.995834",
    "lon": "6.840556"
  },
  {
    "code": "EDLV",
    "name": "Weeze (Niederrhein) Airport",
    "lat": "51.601362",
    "lon": "6.141228"
  },
  {
    "code": "EDLW",
    "name": "Dortmund Airport",
    "lat": "51.518299",
    "lon": "7.61224"
  },
  {
    "code": "EDMA",
    "name": "Augsburg Airport",
    "lat": "48.425278",
    "lon": "10.931667"
  },
  {
    "code": "EDMB",
    "name": "Biberach an der Riß Airfield",
    "lat": "48.112359",
    "lon": "9.764013"
  },
  {
    "code": "EDMC",
    "name": "Blaubeuren Airfield",
    "lat": "48.419724",
    "lon": "9.798333"
  },
  {
    "code": "EDME",
    "name": "Eggenfelden Airfield",
    "lat": "48.396111",
    "lon": "12.723611"
  },
  {
    "code": "EDMF",
    "name": "Fürstenzell Airfield",
    "lat": "48.518055",
    "lon": "13.345833"
  },
  {
    "code": "EDMK",
    "name": "Kempten-Durach Airfield",
    "lat": "47.691944",
    "lon": "10.338056"
  },
  {
    "code": "EDML",
    "name": "Landshut Airfield",
    "lat": "48.512019",
    "lon": "12.034865"
  },
  {
    "code": "EDMN",
    "name": "Mindelheim-Mattsies Airfield",
    "lat": "48.106945",
    "lon": "10.525"
  },
  {
    "code": "EDMO",
    "name": "Oberpfaffenhofen Airport",
    "lat": "48.081402",
    "lon": "11.2831"
  },
  {
    "code": "EDMS",
    "name": "Straubing Airport",
    "lat": "48.900833",
    "lon": "12.516667"
  },
  {
    "code": "EDMT",
    "name": "Tannheim Airfield",
    "lat": "48.009998",
    "lon": "10.098611"
  },
  {
    "code": "EDMV",
    "name": "Vilshofen Airfield",
    "lat": "48.634998",
    "lon": "13.195556"
  },
  {
    "code": "EDNL",
    "name": "Leutkirch-Unterzeil Airfield",
    "lat": "47.858891",
    "lon": "10.014167"
  },
  {
    "code": "EDNR",
    "name": "Regensburg-Oberhub Airfield",
    "lat": "49.141945",
    "lon": "12.081944"
  },
  {
    "code": "EDNX",
    "name": "Schleissheim Airfield",
    "lat": "48.239166",
    "lon": "11.559334"
  },
  {
    "code": "EDNY",
    "name": "Bodensee Airport Friedrichshafen",
    "lat": "47.671299",
    "lon": "9.51149"
  },
  {
    "code": "EDOD",
    "name": "Reinsdorf Airfield",
    "lat": "51.900833",
    "lon": "13.194444"
  },
  {
    "code": "EDOJ",
    "name": "Lüsse Airfield",
    "lat": "52.142706",
    "lon": "12.67144"
  },
  {
    "code": "EDON",
    "name": "Neuhardenberg Marxwalde Airfield",
    "lat": "52.613056",
    "lon": "14.242778"
  },
  {
    "code": "EDOV",
    "name": "Stendal-Borstel Airfield",
    "lat": "52.628887",
    "lon": "11.818611"
  },
  {
    "code": "EDPA",
    "name": "Aalen Heidenheim Elchingen Airfield",
    "lat": "48.777779",
    "lon": "10.264722"
  },
  {
    "code": "EDPJ",
    "name": "Laichingen Jakob Laur Airfield",
    "lat": "48.496944",
    "lon": "9.640278"
  },
  {
    "code": "EDQA",
    "name": "Bamberg-Breitenau Airfield",
    "lat": "49.920403",
    "lon": "10.914233"
  },
  {
    "code": "EDQC",
    "name": "Coburg-Brandensteinsebene Airfield",
    "lat": "50.262501",
    "lon": "10.995556"
  },
  {
    "code": "EDQD",
    "name": "Bayreuth Airport",
    "lat": "49.985001",
    "lon": "11.64"
  },
  {
    "code": "EDQG",
    "name": "Giebelstadt Airport",
    "lat": "49.6480560303",
    "lon": "9.966388702390002"
  },
  {
    "code": "EDQH",
    "name": "Herzogenaurach Airfield",
    "lat": "49.582708",
    "lon": "10.878339"
  },
  {
    "code": "EDQM",
    "name": "Hof-Plauen Airport",
    "lat": "50.288544",
    "lon": "11.852876"
  },
  {
    "code": "EDQT",
    "name": "Haßfurt-Schweinfurt Airfield",
    "lat": "50.0182",
    "lon": "10.529165"
  },
  {
    "code": "EDRB",
    "name": "Bitburg Airport",
    "lat": "49.945278",
    "lon": "6.565"
  },
  {
    "code": "EDRK",
    "name": "Koblenz-Winningen Airfield",
    "lat": "50.325558",
    "lon": "7.528611"
  },
  {
    "code": "EDRL",
    "name": "Flugplatz Lachen-Speyerdorf",
    "lat": "49.330833",
    "lon": "8.209722"
  },
  {
    "code": "EDRT",
    "name": "Trier-Föhren Airfield",
    "lat": "49.863888",
    "lon": "6.7875"
  },
  {
    "code": "EDRY",
    "name": "Speyer Airfield",
    "lat": "49.304722",
    "lon": "8.451389"
  },
  {
    "code": "EDRZ",
    "name": "Zweibrücken Airport",
    "lat": "49.2094",
    "lon": "7.40056"
  },
  {
    "code": "EDSA",
    "name": "Albstadt-Degerfeld Airfield",
    "lat": "48.249722",
    "lon": "9.0625"
  },
  {
    "code": "EDSB",
    "name": "Karlsruhe Baden-Baden Airport",
    "lat": "48.7794",
    "lon": "8.0805"
  },
  {
    "code": "EDSG",
    "name": "Grabenstetten Airfield",
    "lat": "48.53611",
    "lon": "9.436944"
  },
  {
    "code": "EDSN",
    "name": "Neuhausen ob Eck Airfield",
    "lat": "47.976665",
    "lon": "8.903889"
  },
  {
    "code": "EDSP",
    "name": "Poltringen Airfield",
    "lat": "48.547282",
    "lon": "8.945918"
  },
  {
    "code": "EDST",
    "name": "Hahnweide Airfield",
    "lat": "48.631841",
    "lon": "9.429201"
  },
  {
    "code": "EDSZ",
    "name": "Rottweil-Zepfenhan Airfield",
    "lat": "48.186604",
    "lon": "8.722801"
  },
  {
    "code": "EDTD",
    "name": "Donaueschingen-Villingen Airfield",
    "lat": "47.973331",
    "lon": "8.522222"
  },
  {
    "code": "EDTF",
    "name": "Freiburg im Breisgau Airfield",
    "lat": "48.022778",
    "lon": "7.8325"
  },
  {
    "code": "EDTL",
    "name": "Lahr Airport",
    "lat": "48.369301",
    "lon": "7.82772"
  },
  {
    "code": "EDTM",
    "name": "Mengen-Hohentengen Airfield",
    "lat": "48.05389",
    "lon": "9.372778"
  },
  {
    "code": "EDTN",
    "name": "Nabern-Teck Airfield",
    "lat": "48.612778",
    "lon": "9.477222"
  },
  {
    "code": "EDTS",
    "name": "Schwenningen am Neckar Airfield",
    "lat": "48.065834",
    "lon": "8.571389"
  },
  {
    "code": "EDTY",
    "name": "Adolf Würth Airport",
    "lat": "49.118332",
    "lon": "9.783889"
  },
  {
    "code": "EDTZ",
    "name": "Konstanz Airfield",
    "lat": "47.681435",
    "lon": "9.139258"
  },
  {
    "code": "EDUS",
    "name": "Finsterwalde-Schacksdorf Airfield",
    "lat": "51.60743",
    "lon": "13.737702"
  },
  {
    "code": "EDVE",
    "name": "Braunschweig-Wolfsburg Airport",
    "lat": "52.319199",
    "lon": "10.5561"
  },
  {
    "code": "EDVK",
    "name": "Kassel Airport",
    "lat": "51.418395",
    "lon": "9.391638"
  },
  {
    "code": "EDWE",
    "name": "Emden Airport",
    "lat": "53.391109",
    "lon": "7.2275"
  },
  {
    "code": "EDWF",
    "name": "Flugplatz Leer-Papenburg",
    "lat": "53.271942",
    "lon": "7.441667"
  },
  {
    "code": "EDWG",
    "name": "Wangerooge Airport",
    "lat": "53.782544",
    "lon": "7.919584"
  },
  {
    "code": "EDWI",
    "name": "JadeWeser Airport",
    "lat": "53.50222",
    "lon": "8.052222"
  },
  {
    "code": "EDWO",
    "name": "Atterheide Airfield",
    "lat": "52.286388",
    "lon": "7.969722"
  },
  {
    "code": "EDWR",
    "name": "Borkum Airport",
    "lat": "53.59639",
    "lon": "6.709167"
  },
  {
    "code": "EDWY",
    "name": "Norderney Airport",
    "lat": "53.706944",
    "lon": "7.23"
  },
  {
    "code": "EDXB",
    "name": "Heide-Büsum Airport",
    "lat": "54.153332",
    "lon": "8.901667"
  },
  {
    "code": "EDXF",
    "name": "Flensburg-Schäferhaus Airport",
    "lat": "54.773335",
    "lon": "9.378889"
  },
  {
    "code": "EDXH",
    "name": "Helgoland-Düne Airport",
    "lat": "54.18528",
    "lon": "7.915833"
  },
  {
    "code": "EDXJ",
    "name": "Husum-Schwesing Airport",
    "lat": "54.5099983215",
    "lon": "9.138333320620001"
  },
  {
    "code": "EDXW",
    "name": "Westerland Sylt Airport",
    "lat": "54.9132",
    "lon": "8.34047"
  },
  {
    "code": "EEEI",
    "name": "Ämari Air Base",
    "lat": "59.259599",
    "lon": "24.204799"
  },
  {
    "code": "EEKA",
    "name": "Kärdla Airport",
    "lat": "58.99079895019531",
    "lon": "22.830699920654297"
  },
  {
    "code": "EEKE",
    "name": "Kuressaare Airport",
    "lat": "58.22990036010742",
    "lon": "22.50950050354004"
  },
  {
    "code": "EEPU",
    "name": "Pärnu Airport",
    "lat": "58.41899871826172",
    "lon": "24.47279930114746"
  },
  {
    "code": "EERI",
    "name": "Ridali Airfield",
    "lat": "57.939999",
    "lon": "26.979"
  },
  {
    "code": "EETN",
    "name": "Lennart Meri Tallinn Airport",
    "lat": "59.413246",
    "lon": "24.83264"
  },
  {
    "code": "EETU",
    "name": "Tartu Airport",
    "lat": "58.307438",
    "lon": "26.686473"
  },
  {
    "code": "EFET",
    "name": "Enontekio Airport",
    "lat": "68.362602233887",
    "lon": "23.424299240112"
  },
  {
    "code": "EFEU",
    "name": "Eura Airfield",
    "lat": "61.1161",
    "lon": "22.201401"
  },
  {
    "code": "EFHA",
    "name": "Halli Airport",
    "lat": "61.856039",
    "lon": "24.786686"
  },
  {
    "code": "EFHK",
    "name": "Helsinki Vantaa Airport",
    "lat": "60.318363",
    "lon": "24.963341"
  },
  {
    "code": "EFHN",
    "name": "Hanko Airfield",
    "lat": "59.8489",
    "lon": "23.083599"
  },
  {
    "code": "EFIM",
    "name": "Immola Airfield",
    "lat": "61.249199",
    "lon": "28.9037"
  },
  {
    "code": "EFIT",
    "name": "Kitee Airport",
    "lat": "62.1661",
    "lon": "30.073601"
  },
  {
    "code": "EFIV",
    "name": "Ivalo Airport",
    "lat": "68.6073",
    "lon": "27.4053"
  },
  {
    "code": "EFJO",
    "name": "Joensuu Airport",
    "lat": "62.658815",
    "lon": "29.619398"
  },
  {
    "code": "EFJY",
    "name": "Jyväskylä Airport",
    "lat": "62.399502",
    "lon": "25.678301"
  },
  {
    "code": "EFKE",
    "name": "Kemi-Tornio Airport",
    "lat": "65.778701782227",
    "lon": "24.582099914551"
  },
  {
    "code": "EFKI",
    "name": "Kajaani Airport",
    "lat": "64.2855",
    "lon": "27.6924"
  },
  {
    "code": "EFKK",
    "name": "Kokkola-Pietarsaari Airport",
    "lat": "63.721199",
    "lon": "23.143101"
  },
  {
    "code": "EFKS",
    "name": "Kuusamo Airport",
    "lat": "65.987602",
    "lon": "29.239401"
  },
  {
    "code": "EFKT",
    "name": "Kittilä International Airport",
    "lat": "67.700996",
    "lon": "24.8468"
  },
  {
    "code": "EFKU",
    "name": "Kuopio Airport",
    "lat": "63.007099",
    "lon": "27.7978"
  },
  {
    "code": "EFLP",
    "name": "Lappeenranta Airport",
    "lat": "61.044601",
    "lon": "28.144743"
  },
  {
    "code": "EFMA",
    "name": "Mariehamn Airport",
    "lat": "60.1222",
    "lon": "19.898199"
  },
  {
    "code": "EFMI",
    "name": "Mikkeli Airport",
    "lat": "61.6866",
    "lon": "27.201799"
  },
  {
    "code": "EFNU",
    "name": "Nummela Airfield",
    "lat": "60.3339",
    "lon": "24.2964"
  },
  {
    "code": "EFOU",
    "name": "Oulu Airport",
    "lat": "64.930099",
    "lon": "25.354601"
  },
  {
    "code": "EFPI",
    "name": "Piikajarvi Airfield",
    "lat": "61.245602",
    "lon": "22.193399"
  },
  {
    "code": "EFPO",
    "name": "Pori Airport",
    "lat": "61.4617",
    "lon": "21.799999"
  },
  {
    "code": "EFPY",
    "name": "Pyhäsalmi Airfield",
    "lat": "63.731899",
    "lon": "25.9263"
  },
  {
    "code": "EFRH",
    "name": "Raahe Pattijoki Airfield",
    "lat": "64.688103",
    "lon": "24.695801"
  },
  {
    "code": "EFRO",
    "name": "Rovaniemi Airport",
    "lat": "66.563327",
    "lon": "25.829751"
  },
  {
    "code": "EFSA",
    "name": "Savonlinna Airport",
    "lat": "61.9431",
    "lon": "28.945101"
  },
  {
    "code": "EFSI",
    "name": "Seinäjoki Airport",
    "lat": "62.692101",
    "lon": "22.8323"
  },
  {
    "code": "EFSO",
    "name": "Sodankyla Airport",
    "lat": "67.3949966431",
    "lon": "26.6191005707"
  },
  {
    "code": "EFTP",
    "name": "Tampere-Pirkkala Airport",
    "lat": "61.414101",
    "lon": "23.604401"
  },
  {
    "code": "EFTU",
    "name": "Turku Airport",
    "lat": "60.514099",
    "lon": "22.2628"
  },
  {
    "code": "EFUT",
    "name": "Utti Air Base",
    "lat": "60.8964",
    "lon": "26.9384"
  },
  {
    "code": "EFVA",
    "name": "Vaasa Airport",
    "lat": "63.05023",
    "lon": "21.762543"
  },
  {
    "code": "EFVR",
    "name": "Varkaus Airport",
    "lat": "62.171101",
    "lon": "27.868601"
  },
  {
    "code": "EG34",
    "name": "Ledbury Airfield",
    "lat": "52.0019",
    "lon": "-2.47416"
  },
  {
    "code": "EGAA",
    "name": "Belfast International Airport",
    "lat": "54.6575012207",
    "lon": "-6.2158298492399995"
  },
  {
    "code": "EGAB",
    "name": "Enniskillen/St Angelo Airport",
    "lat": "54.398274",
    "lon": "-7.651179"
  },
  {
    "code": "EGAC",
    "name": "George Best Belfast City Airport",
    "lat": "54.618099",
    "lon": "-5.8725"
  },
  {
    "code": "EGAE",
    "name": "City of Derry Airport",
    "lat": "55.042801",
    "lon": "-7.16111"
  },
  {
    "code": "EGBB",
    "name": "Birmingham Airport",
    "lat": "52.453899",
    "lon": "-1.74803"
  },
  {
    "code": "EGBD",
    "name": "Derby Airfield",
    "lat": "52.859699",
    "lon": "-1.6175"
  },
  {
    "code": "EGBE",
    "name": "Coventry Airport",
    "lat": "52.369701",
    "lon": "-1.47972"
  },
  {
    "code": "EGBF",
    "name": "Bedford Aerodrome",
    "lat": "52.23071",
    "lon": "-0.463825"
  },
  {
    "code": "EGBG",
    "name": "Leicester Airport",
    "lat": "52.606574",
    "lon": "-1.030226"
  },
  {
    "code": "EGBJ",
    "name": "Gloucestershire Airport",
    "lat": "51.894199",
    "lon": "-2.16722"
  },
  {
    "code": "EGBK",
    "name": "Sywell Aerodrome",
    "lat": "52.305302",
    "lon": "-0.793056"
  },
  {
    "code": "EGBM",
    "name": "Tatenhill Airfield",
    "lat": "52.81431",
    "lon": "-1.767942"
  },
  {
    "code": "EGBN",
    "name": "Nottingham City Airport",
    "lat": "52.919998",
    "lon": "-1.07917"
  },
  {
    "code": "EGBO",
    "name": "Wolverhampton Halfpenny Green Airport",
    "lat": "52.517502",
    "lon": "-2.25944"
  },
  {
    "code": "EGBP",
    "name": "Cotswold Airport",
    "lat": "51.668528",
    "lon": "-2.056599"
  },
  {
    "code": "EGBS",
    "name": "Shobdon Airfield",
    "lat": "52.241699",
    "lon": "-2.88111"
  },
  {
    "code": "EGBT",
    "name": "Turweston Aerodrome",
    "lat": "52.040798",
    "lon": "-1.09556"
  },
  {
    "code": "EGBW",
    "name": "Wellesbourne Mountford Airfield",
    "lat": "52.189353",
    "lon": "-1.614089"
  },
  {
    "code": "EG22",
    "name": "Coal Aston Airfield",
    "lat": "53.304809",
    "lon": "-1.42886"
  },
  {
    "code": "EGCB",
    "name": "Manchester Barton Aerodrome",
    "lat": "53.471699",
    "lon": "-2.38972"
  },
  {
    "code": "EGCC",
    "name": "Manchester Airport",
    "lat": "53.349375",
    "lon": "-2.279521"
  },
  {
    "code": "EGCF",
    "name": "Sandtoft Airfield",
    "lat": "53.559358",
    "lon": "-0.859043"
  },
  {
    "code": "EGCJ",
    "name": "Sherburn-in-Elmet Airfield",
    "lat": "53.788458",
    "lon": "-1.216877"
  },
  {
    "code": "EGCK",
    "name": "Caernarfon Airport",
    "lat": "53.101819",
    "lon": "-4.337614"
  },
  {
    "code": "EGCS",
    "name": "Sturgate Airfield",
    "lat": "53.381242",
    "lon": "-0.6848"
  },
  {
    "code": "EGCW",
    "name": "Welshpool Airport",
    "lat": "52.628601",
    "lon": "-3.15333"
  },
  {
    "code": "EGDC",
    "name": "Royal Marines Base Chivenor",
    "lat": "51.0872",
    "lon": "-4.15034"
  },
  {
    "code": "EGDM",
    "name": "MoD Boscombe Down",
    "lat": "51.152199",
    "lon": "-1.74741"
  },
  {
    "code": "EGDN",
    "name": "Netheravon Airfield",
    "lat": "51.2472",
    "lon": "-1.75425"
  },
  {
    "code": "EGDO",
    "name": "Predannack Airfield",
    "lat": "50.001202",
    "lon": "-5.23083"
  },
  {
    "code": "EGDR",
    "name": "RNAS Culdrose",
    "lat": "50.08610153198242",
    "lon": "-5.255710124969482"
  },
  {
    "code": "EGDW",
    "name": "RNAS Merryfield",
    "lat": "50.964283",
    "lon": "-2.938443"
  },
  {
    "code": "EGDX",
    "name": "MOD St Athan",
    "lat": "51.405229",
    "lon": "-3.433254"
  },
  {
    "code": "EGDY",
    "name": "RNAS Yeovilton",
    "lat": "51.009399",
    "lon": "-2.63882"
  },
  {
    "code": "EGEC",
    "name": "Campbeltown Airport",
    "lat": "55.437199",
    "lon": "-5.68639"
  },
  {
    "code": "EGED",
    "name": "Eday Airport",
    "lat": "59.19060134887695",
    "lon": "-2.7722198963165283"
  },
  {
    "code": "EGEF",
    "name": "Fair Isle Airport",
    "lat": "59.534721",
    "lon": "-1.628509"
  },
  {
    "code": "EGEH",
    "name": "Whalsay Airstrip",
    "lat": "60.376835",
    "lon": "-0.927229"
  },
  {
    "code": "EGEI",
    "name": "Broadford Airstrip",
    "lat": "57.253131",
    "lon": "-5.827755"
  },
  {
    "code": "EGEL",
    "name": "Coll Airport",
    "lat": "56.601898",
    "lon": "-6.61778"
  },
  {
    "code": "EGEN",
    "name": "North Ronaldsay Airport",
    "lat": "59.3675003052",
    "lon": "-2.43443989754"
  },
  {
    "code": "EGEO",
    "name": "Oban Airport",
    "lat": "56.463501",
    "lon": "-5.39967"
  },
  {
    "code": "EGEP",
    "name": "Papa Westray Airport",
    "lat": "59.351012",
    "lon": "-2.900353"
  },
  {
    "code": "EGER",
    "name": "Stronsay Airport",
    "lat": "59.1553",
    "lon": "-2.64139"
  },
  {
    "code": "EGES",
    "name": "Sanday Airport",
    "lat": "59.250301",
    "lon": "-2.57667"
  },
  {
    "code": "EGET",
    "name": "Lerwick / Tingwall Airport",
    "lat": "60.1922",
    "lon": "-1.24361"
  },
  {
    "code": "EGEW",
    "name": "Westray Airport",
    "lat": "59.350475",
    "lon": "-2.950062"
  },
  {
    "code": "EGEY",
    "name": "Colonsay Airstrip",
    "lat": "56.057499",
    "lon": "-6.24306"
  },
  {
    "code": "EGFA",
    "name": "Aberporth Airport",
    "lat": "52.1152992249",
    "lon": "-4.556940078739999"
  },
  {
    "code": "EGFD",
    "name": "Llanbedr Airfield",
    "lat": "52.811699",
    "lon": "-4.12358"
  },
  {
    "code": "EGFE",
    "name": "Haverfordwest Airport",
    "lat": "51.833099365234375",
    "lon": "-4.9611101150512695"
  },
  {
    "code": "EGFF",
    "name": "Cardiff International Airport",
    "lat": "51.396702",
    "lon": "-3.34333"
  },
  {
    "code": "EGFH",
    "name": "Swansea Airport",
    "lat": "51.601366",
    "lon": "-4.071006"
  },
  {
    "code": "EGFP",
    "name": "Pembrey West Wales Airport",
    "lat": "51.713902",
    "lon": "-4.31222"
  },
  {
    "code": "EGGD",
    "name": "Bristol Airport",
    "lat": "51.382326",
    "lon": "-2.716453"
  },
  {
    "code": "EGGP",
    "name": "Liverpool John Lennon Airport",
    "lat": "53.334863",
    "lon": "-2.849637"
  },
  {
    "code": "EGGW",
    "name": "London Luton Airport",
    "lat": "51.874699",
    "lon": "-0.368333"
  },
  {
    "code": "EGHA",
    "name": "Compton Abbas Aerodrome",
    "lat": "50.967201",
    "lon": "-2.15361"
  },
  {
    "code": "EGHC",
    "name": "Land's End Airport",
    "lat": "50.102798",
    "lon": "-5.67056"
  },
  {
    "code": "EGHE",
    "name": "St. Mary's Airport",
    "lat": "49.913375",
    "lon": "-6.291894"
  },
  {
    "code": "EGHF",
    "name": "Solent Airport",
    "lat": "50.814201",
    "lon": "-1.20333"
  },
  {
    "code": "EGHG",
    "name": "Yeovil/Westland Aerodrome",
    "lat": "50.939999",
    "lon": "-2.65861"
  },
  {
    "code": "EGHH",
    "name": "Bournemouth Airport",
    "lat": "50.780483",
    "lon": "-1.839576"
  },
  {
    "code": "EGHI",
    "name": "Southampton Airport",
    "lat": "50.950298",
    "lon": "-1.3568"
  },
  {
    "code": "EGHJ",
    "name": "Bembridge Airport",
    "lat": "50.678101",
    "lon": "-1.10944"
  },
  {
    "code": "EGHL",
    "name": "Lasham Airfield",
    "lat": "51.18744",
    "lon": "-1.031663"
  },
  {
    "code": "EGHO",
    "name": "Thruxton Aerodrome",
    "lat": "51.210602",
    "lon": "-1.6"
  },
  {
    "code": "EGHQ",
    "name": "Cornwall Airport Newquay",
    "lat": "50.440601",
    "lon": "-4.99541"
  },
  {
    "code": "EGHR",
    "name": "Goodwood Aerodrome",
    "lat": "50.859832",
    "lon": "-0.760073"
  },
  {
    "code": "EGHU",
    "name": "Eaglescott Airfield",
    "lat": "50.928651",
    "lon": "-3.988446"
  },
  {
    "code": "EGHY",
    "name": "Truro Aerodrome",
    "lat": "50.2784",
    "lon": "-5.14229"
  },
  {
    "code": "EGJB",
    "name": "Guernsey Airport",
    "lat": "49.435001",
    "lon": "-2.60197"
  },
  {
    "code": "EGJJ",
    "name": "Jersey Airport",
    "lat": "49.207901",
    "lon": "-2.19551"
  },
  {
    "code": "EGKA",
    "name": "Brighton City Airport",
    "lat": "50.835602",
    "lon": "-0.297222"
  },
  {
    "code": "EGKB",
    "name": "London Biggin Hill Airport",
    "lat": "51.33079910279999",
    "lon": "0.0324999988079"
  },
  {
    "code": "EGKK",
    "name": "London Gatwick Airport",
    "lat": "51.148744",
    "lon": "-0.185739"
  },
  {
    "code": "EGKL",
    "name": "Deanland Lewes Airfield",
    "lat": "50.881093",
    "lon": "0.154345"
  },
  {
    "code": "EGKR",
    "name": "Redhill Aerodrome",
    "lat": "51.2136",
    "lon": "-0.138611"
  },
  {
    "code": "EGLA",
    "name": "Bodmin Airfield",
    "lat": "50.499698638916016",
    "lon": "-4.665830135345459"
  },
  {
    "code": "EGLC",
    "name": "London City Airport",
    "lat": "51.505299",
    "lon": "0.055278"
  },
  {
    "code": "EGLD",
    "name": "Denham Aerodrome",
    "lat": "51.588299",
    "lon": "-0.513056"
  },
  {
    "code": "EGLF",
    "name": "Farnborough Airport",
    "lat": "51.275799",
    "lon": "-0.776333"
  },
  {
    "code": "EGLJ",
    "name": "Chalgrove Airfield",
    "lat": "51.676102",
    "lon": "-1.08083"
  },
  {
    "code": "EGLK",
    "name": "Blackbushe Airport",
    "lat": "51.323898",
    "lon": "-0.8475"
  },
  {
    "code": "EGLL",
    "name": "London Heathrow Airport",
    "lat": "51.470748",
    "lon": "-0.459909"
  },
  {
    "code": "EGLM",
    "name": "White Waltham Airfield",
    "lat": "51.500801",
    "lon": "-0.774444"
  },
  {
    "code": "EGMC",
    "name": "London Southend Airport",
    "lat": "51.570562",
    "lon": "0.693627"
  },
  {
    "code": "EGMD",
    "name": "Lydd London Ashford Airport",
    "lat": "50.956246",
    "lon": "0.939074"
  },
  {
    "code": "EGMT",
    "name": "Thurrock Airfield",
    "lat": "51.537505",
    "lon": "0.367634"
  },